{
    "version": 0.6,
    "generator": "Overpass API 0.7.55.5 2ca3f387",
    "osm3s": {
      "timestamp_osm_base": "2018-12-03T13:47:02Z",
      "timestamp_areas_base": "2018-12-03T13:10:02Z",
      "copyright": "The data included in this document is from www.openstreetmap.org. The data is made available under ODbL."
    },
    "elements": [
  
  {
    "type": "node",
    "id": 734402,
    "lat": 46.6905993,
    "lon": 7.6681887,
    "tags": {
      "amenity": "fuel",
      "name": "Agip",
      "operator": "Agip"
    }
  },
  {
    "type": "node",
    "id": 1228781,
    "lat": 46.8785984,
    "lon": 7.5423261,
    "tags": {
      "amenity": "fuel",
      "brand": "BP",
      "fuel:diesel": "yes",
      "operator": "BP"
    }
  },
  {
    "type": "node",
    "id": 5702030,
    "lat": 46.6805465,
    "lon": 7.8274119,
    "tags": {
      "amenity": "fuel",
      "name": "Migrol"
    }
  },
  {
    "type": "node",
    "id": 5702071,
    "lat": 46.6834149,
    "lon": 7.8445587,
    "tags": {
      "amenity": "fuel",
      "name": "Avia",
      "operator": "Avia"
    }
  },
  {
    "type": "node",
    "id": 8082505,
    "lat": 46.6838171,
    "lon": 7.6644266,
    "tags": {
      "amenity": "fuel",
      "wheelchair": "limited"
    }
  },
  {
    "type": "node",
    "id": 17407058,
    "lat": 47.0547266,
    "lon": 7.6253785,
    "tags": {
      "amenity": "fuel",
      "created_by": "Potlatch 0.5d",
      "operator": "Shell"
    }
  },
  {
    "type": "node",
    "id": 25579746,
    "lat": 46.2148939,
    "lon": 6.1042206,
    "tags": {
      "addr:city": "Châtelaine",
      "addr:housenumber": "42",
      "addr:street": "Chemin J. Philibert de Sauvage",
      "amenity": "fuel"
    }
  },
  {
    "type": "node",
    "id": 26054764,
    "lat": 46.8840991,
    "lon": 8.6370138,
    "tags": {
      "amenity": "fuel",
      "brand": "BP",
      "name": "BP",
      "operator": "Garage Waser"
    }
  },
  {
    "type": "node",
    "id": 26055234,
    "lat": 46.8877547,
    "lon": 8.6326246,
    "tags": {
      "amenity": "fuel",
      "name": "Avia-Tankstelle"
    }
  },
  {
    "type": "node",
    "id": 27069561,
    "lat": 47.3963906,
    "lon": 8.6233174,
    "tags": {
      "amenity": "fuel",
      "opening_hours": "24/7",
      "operator": "SOCAR"
    }
  },
  {
    "type": "node",
    "id": 27125026,
    "lat": 47.4008116,
    "lon": 8.6199008,
    "tags": {
      "amenity": "fuel",
      "name": "BP"
    }
  },
  {
    "type": "node",
    "id": 27587744,
    "lat": 47.3644086,
    "lon": 8.5520396,
    "tags": {
      "amenity": "fuel",
      "automated": "yes",
      "brand": "Avia",
      "fuel:diesel": "yes",
      "fuel:octane_95": "yes",
      "name": "Avia Kreuzstrasse",
      "opening_hours": "24/7",
      "operator": "Avia Osterwalder Zürich",
      "self_service": "yes",
      "shop": "no"
    }
  },
  {
    "type": "node",
    "id": 28219645,
    "lat": 47.4321706,
    "lon": 8.6762499,
    "tags": {
      "amenity": "fuel",
      "operator": "BP"
    }
  },
  {
    "type": "node",
    "id": 29881492,
    "lat": 47.6861055,
    "lon": 8.6214688,
    "tags": {
      "amenity": "fuel",
      "name": "Shell",
      "opening_hours": "Mo-Sa 06:00-23:45; Su,PH 07:00-23:45"
    }
  },
  {
    "type": "node",
    "id": 29881496,
    "lat": 47.6822764,
    "lon": 8.6093701,
    "tags": {
      "amenity": "fuel",
      "name": "Migrol"
    }
  },
  {
    "type": "node",
    "id": 29882004,
    "lat": 47.6799675,
    "lon": 8.6064702,
    "tags": {
      "amenity": "fuel",
      "name": "Coop"
    }
  },
  {
    "type": "node",
    "id": 29885119,
    "lat": 47.6866921,
    "lon": 8.6114652,
    "tags": {
      "amenity": "fuel",
      "name": "Agip"
    }
  },
  {
    "type": "node",
    "id": 29885121,
    "lat": 47.6773289,
    "lon": 8.6005845,
    "tags": {
      "amenity": "fuel",
      "name": "Wegmüller"
    }
  },
  {
    "type": "node",
    "id": 30011079,
    "lat": 47.7142970,
    "lon": 8.5161525,
    "tags": {
      "amenity": "fuel"
    }
  },
  {
    "type": "node",
    "id": 32222575,
    "lat": 47.3806744,
    "lon": 8.6828908,
    "tags": {
      "amenity": "fuel",
      "name": "Coop",
      "operator": "Coop",
      "shop": "convenience"
    }
  },
  {
    "type": "node",
    "id": 33127154,
    "lat": 47.1377584,
    "lon": 9.0509476,
    "tags": {
      "amenity": "fuel"
    }
  },
  {
    "type": "node",
    "id": 33157581,
    "lat": 47.1554377,
    "lon": 9.0382360,
    "tags": {
      "amenity": "fuel",
      "created_by": "JOSM"
    }
  },
  {
    "type": "node",
    "id": 33593043,
    "lat": 47.1327975,
    "lon": 9.0875692,
    "tags": {
      "amenity": "fuel",
      "name": "Garage Jörg AG"
    }
  },
  {
    "type": "node",
    "id": 34016401,
    "lat": 47.2267167,
    "lon": 8.9807659,
    "tags": {
      "amenity": "fuel"
    }
  },
  {
    "type": "node",
    "id": 34026947,
    "lat": 47.1782564,
    "lon": 9.0513173,
    "tags": {
      "amenity": "fuel",
      "brand": "BP"
    }
  },
  {
    "type": "node",
    "id": 34026948,
    "lat": 47.1870766,
    "lon": 9.0497233,
    "tags": {
      "amenity": "fuel",
      "brand": "Spurt"
    }
  },
  {
    "type": "node",
    "id": 34026949,
    "lat": 47.2112768,
    "lon": 9.0283638,
    "tags": {
      "amenity": "fuel",
      "name": "Agrola"
    }
  },
  {
    "type": "node",
    "id": 34078845,
    "lat": 47.4956891,
    "lon": 8.7130086,
    "tags": {
      "amenity": "fuel",
      "fuel:biogas": "yes",
      "fuel:cng": "yes",
      "operator": "Shell"
    }
  },
  {
    "type": "node",
    "id": 35684995,
    "lat": 47.2254436,
    "lon": 8.9762364,
    "tags": {
      "amenity": "fuel",
      "opening_hours": "24/7",
      "operator": "Agrola"
    }
  },
  {
    "type": "node",
    "id": 36724756,
    "lat": 47.2276912,
    "lon": 8.9725482,
    "tags": {
      "amenity": "fuel",
      "operator": "BP"
    }
  },
  {
    "type": "node",
    "id": 47744371,
    "lat": 47.3995257,
    "lon": 8.4973287,
    "tags": {
      "addr:city": "Zürich",
      "addr:country": "CH",
      "addr:housenumber": "146",
      "addr:postcode": "8049",
      "addr:street": "Am Wasser",
      "amenity": "fuel",
      "brand": "Coop",
      "name": "Coop Tankstelle Höngg",
      "opening_hours": "Mo-Su 06:00-23:00",
      "operator": "Coop Mineraloel",
      "shop": "convenience"
    }
  },
  {
    "type": "node",
    "id": 52741787,
    "lat": 47.3817369,
    "lon": 8.5094723,
    "tags": {
      "addr:city": "Zürich",
      "addr:country": "CH",
      "addr:housenumber": "73",
      "addr:postcode": "8004",
      "addr:street": "Bullingerstrasse",
      "amenity": "fuel",
      "brand": "Shell",
      "fuel:diesel": "yes",
      "fuel:octane_100": "yes",
      "fuel:octane_95": "yes",
      "name": "Shell Hardau",
      "shop": "convenience",
      "wheelchair": "yes"
    }
  },
  {
    "type": "node",
    "id": 54754456,
    "lat": 47.1211669,
    "lon": 9.1224567,
    "tags": {
      "amenity": "fuel",
      "fuel:diesel": "yes",
      "fuel:octane_95": "yes",
      "fuel:octane_98": "yes"
    }
  },
  {
    "type": "node",
    "id": 55275762,
    "lat": 47.2149238,
    "lon": 9.0214062,
    "tags": {
      "amenity": "fuel",
      "created_by": "JOSM"
    }
  },
  {
    "type": "node",
    "id": 56237356,
    "lat": 47.2202872,
    "lon": 8.9808668,
    "tags": {
      "addr:city": "Uznach",
      "addr:housenumber": "9",
      "addr:postcode": "8730",
      "addr:street": "Burgerrietstrasse",
      "amenity": "fuel",
      "opening_hours": "24/7",
      "operator": "Post"
    }
  },
  {
    "type": "node",
    "id": 56699071,
    "lat": 47.2343660,
    "lon": 8.7356323,
    "tags": {
      "amenity": "fuel",
      "name": "Seegarage"
    }
  },
  {
    "type": "node",
    "id": 59185470,
    "lat": 47.2375916,
    "lon": 8.7277241,
    "tags": {
      "addr:city": "Stäfa",
      "addr:country": "CH",
      "addr:housenumber": "109",
      "addr:postcode": "8712",
      "addr:street": "Seestrasse",
      "amenity": "fuel",
      "brand": "AVIA",
      "name": "AVIA",
      "operator": "AVIA",
      "shop": "convenience",
      "wheelchair": "yes"
    }
  },
  {
    "type": "node",
    "id": 71053386,
    "lat": 47.4100784,
    "lon": 8.3891246,
    "tags": {
      "amenity": "fuel",
      "brand": "Avia",
      "fuel:adblue": "no",
      "fuel:diesel": "yes",
      "fuel:octane_95": "yes",
      "fuel:octane_98": "yes",
      "self_service": "yes",
      "shop": "convenience"
    }
  },
  {
    "type": "node",
    "id": 73124669,
    "lat": 47.3811460,
    "lon": 8.4920767,
    "tags": {
      "addr:city": "Zürich",
      "addr:country": "CH",
      "addr:housenumber": "95",
      "addr:postcode": "8047",
      "addr:street": "Flurstrasse",
      "amenity": "fuel",
      "brand": "Migrol",
      "fuel:diesel": "yes",
      "fuel:octane_95": "yes",
      "name": "Migrol Service Flurstrasse",
      "opening_hours": "Mo-Fr 06:00-22:00, Sa 07:00-21:00, Su 08:00-20:00",
      "operator": "Migrol",
      "payment:american_express": "yes",
      "payment:maestro": "yes",
      "payment:mastercard": "yes",
      "payment:notes": "yes",
      "payment:visa": "yes",
      "shop": "convenience"
    }
  },
  {
    "type": "node",
    "id": 81321511,
    "lat": 47.5335417,
    "lon": 9.0697140,
    "tags": {
      "amenity": "fuel"
    }
  },
  {
    "type": "node",
    "id": 82462301,
    "lat": 47.6556123,
    "lon": 8.8576878,
    "tags": {
      "amenity": "fuel",
      "brand": "Avia",
      "fuel:1_25": "no",
      "fuel:diesel": "yes",
      "fuel:octane_95": "yes",
      "fuel:octane_98": "yes",
      "name": "Keusch",
      "operator": "Avia",
      "shop": "no"
    }
  },
  {
    "type": "node",
    "id": 82462303,
    "lat": 47.6577964,
    "lon": 8.8533445,
    "tags": {
      "amenity": "fuel",
      "fuel:1_25": "no",
      "fuel:1_50": "no",
      "fuel:GTL_diesel": "no",
      "fuel:HGV_diesel": "no",
      "fuel:biodiesel": "no",
      "fuel:biogas": "no",
      "fuel:cng": "no",
      "fuel:diesel": "yes",
      "fuel:e10": "no",
      "fuel:e85": "no",
      "fuel:electricity": "no",
      "fuel:lpg": "no",
      "fuel:octane_100": "no",
      "fuel:octane_91": "no",
      "fuel:octane_95": "yes",
      "fuel:octane_98": "yes",
      "name": "Kofi's"
    }
  },
  {
    "type": "node",
    "id": 83423432,
    "lat": 47.3373646,
    "lon": 8.5301934,
    "tags": {
      "addr:city": "Zürich",
      "addr:country": "CH",
      "addr:housenumber": "115",
      "addr:postcode": "8038",
      "addr:street": "Albisstrasse",
      "amenity": "fuel",
      "brand": "Shell",
      "fuel:diesel": "yes",
      "fuel:octane_100": "yes",
      "fuel:octane_95": "yes",
      "name": "Shell Wollishofen",
      "shop": "yes"
    }
  },
  {
    "type": "node",
    "id": 83424882,
    "lat": 47.3398175,
    "lon": 8.5298146,
    "tags": {
      "amenity": "fuel",
      "brand": "Avia",
      "name": "Avia Service Wollishofen",
      "operator": "Avia Osterwalder Zürich"
    }
  },
  {
    "type": "node",
    "id": 84513888,
    "lat": 47.3236594,
    "lon": 8.5187924,
    "tags": {
      "amenity": "fuel",
      "brand": "Eni",
      "fuel:diesel": "yes",
      "fuel:octane_95": "yes",
      "name": "Eni Sihltalstrasse",
      "shop": "yes"
    }
  },
  {
    "type": "node",
    "id": 86035999,
    "lat": 47.0242031,
    "lon": 8.2963023,
    "tags": {
      "amenity": "fuel",
      "fuel:biogas": "yes",
      "fuel:diesel": "yes",
      "fuel:octane_95": "yes",
      "fuel:octane_98": "yes",
      "name": "Agip",
      "operator": "Agip",
      "self_service": "yes",
      "shop": "convenience"
    }
  },
  {
    "type": "node",
    "id": 89266715,
    "lat": 47.1832564,
    "lon": 7.9810905,
    "tags": {
      "amenity": "fuel",
      "brand": "Agrola",
      "name": "Agrola",
      "operator": "Landi Oberwiggertal",
      "wheelchair": "yes"
    }
  },
  {
    "type": "node",
    "id": 94628702,
    "lat": 47.0265745,
    "lon": 8.2993369,
    "tags": {
      "amenity": "fuel",
      "brand": "Shell",
      "name": "Shell"
    }
  },
  {
    "type": "node",
    "id": 95582040,
    "lat": 47.0495135,
    "lon": 9.0600281,
    "tags": {
      "amenity": "fuel",
      "brand": "Avia",
      "name": "Avia"
    }
  },
  {
    "type": "node",
    "id": 98838885,
    "lat": 47.0678093,
    "lon": 9.0577963,
    "tags": {
      "amenity": "fuel",
      "name": "Coop"
    }
  },
  {
    "type": "node",
    "id": 98838886,
    "lat": 47.0725304,
    "lon": 9.0560821,
    "tags": {
      "amenity": "fuel",
      "brand": "Socar",
      "name": "SOCAR"
    }
  },
  {
    "type": "node",
    "id": 98838887,
    "lat": 47.0949163,
    "lon": 9.0680089,
    "tags": {
      "amenity": "fuel",
      "name": "Oil"
    }
  },
  {
    "type": "node",
    "id": 101392168,
    "lat": 47.3890134,
    "lon": 8.6954370,
    "tags": {
      "addr:city": "Volketswil",
      "addr:country": "CH",
      "addr:housenumber": "4",
      "addr:postcode": "8604",
      "addr:street": "Pfäffikerstrasse",
      "amenity": "fuel",
      "name": "AVIA"
    }
  },
  {
    "type": "node",
    "id": 102726613,
    "lat": 47.2169730,
    "lon": 8.5763654,
    "tags": {
      "addr:city": "Sihlbrugg",
      "addr:country": "CH",
      "addr:housenumber": "2",
      "addr:postcode": "6340",
      "addr:street": "Zugerstrasse",
      "amenity": "fuel",
      "name": "Shell",
      "operator": "ROC Sihlbrugg"
    }
  },
  {
    "type": "node",
    "id": 102728438,
    "lat": 47.1994085,
    "lon": 8.5736624,
    "tags": {
      "amenity": "fuel",
      "created_by": "Potlatch 0.4c",
      "wheelchair": "no"
    }
  },
  {
    "type": "node",
    "id": 103096904,
    "lat": 47.3460496,
    "lon": 8.5345181,
    "tags": {
      "amenity": "fuel",
      "brand": "Avia",
      "fuel:diesel": "yes",
      "fuel:octane_95": "yes",
      "name": "Avia",
      "operator": "A.H. Meyer & Cie AG",
      "shop": "convenience"
    }
  },
  {
    "type": "node",
    "id": 103102957,
    "lat": 47.3485725,
    "lon": 8.5340966,
    "tags": {
      "addr:city": "Zürich",
      "addr:country": "CH",
      "addr:housenumber": "320",
      "addr:postcode": "8038",
      "addr:street": "Mythenquai",
      "amenity": "fuel",
      "brand": "BP",
      "fuel:diesel": "yes",
      "fuel:octane_95": "yes",
      "fuel:octane_98": "yes",
      "name": "BP Service Wollishofen",
      "shop": "yes"
    }
  },
  {
    "type": "node",
    "id": 110964235,
    "lat": 47.5278765,
    "lon": 7.7003458,
    "tags": {
      "amenity": "fuel",
      "brand": "BP",
      "fuel:GTL_diesel": "yes",
      "fuel:GTL_diesel:name": "Ultimate Diesel",
      "fuel:HGV_diesel": "yes",
      "fuel:cng": "yes",
      "fuel:cng:maxheight": "2.8",
      "fuel:diesel": "yes",
      "fuel:octane_95": "yes",
      "fuel:octane_95:name": "Bleifrei 95",
      "fuel:octane_98": "yes",
      "fuel:octane_98:name": "Ultimate Bleifrei 98",
      "fuel:others": "no",
      "name": "BP"
    }
  },
  {
    "type": "node",
    "id": 111247327,
    "lat": 47.5079355,
    "lon": 8.5435406,
    "tags": {
      "amenity": "fuel",
      "name": "Avia",
      "operator": "Avia Service"
    }
  },
  {
    "type": "node",
    "id": 111247401,
    "lat": 47.5063782,
    "lon": 8.5406771,
    "tags": {
      "addr:housenumber": "6b",
      "addr:postcode": "8184",
      "addr:street": "Grabenstrasse",
      "amenity": "fuel",
      "operator": "Coop Service"
    }
  },
  {
    "type": "node",
    "id": 125683037,
    "lat": 47.5250153,
    "lon": 7.6900191,
    "tags": {
      "amenity": "fuel",
      "name": "BP",
      "operator": "BP"
    }
  },
  {
    "type": "node",
    "id": 130216563,
    "lat": 47.4804183,
    "lon": 8.2358504,
    "tags": {
      "amenity": "fuel",
      "name": "AVIA",
      "operator": "Avia"
    }
  },
  {
    "type": "node",
    "id": 130216565,
    "lat": 47.4811412,
    "lon": 8.2391514,
    "tags": {
      "amenity": "fuel",
      "name": "Shell",
      "operator": "Shell"
    }
  },
  {
    "type": "node",
    "id": 130216566,
    "lat": 47.4842929,
    "lon": 8.2421730,
    "tags": {
      "amenity": "fuel",
      "name": "BP",
      "operator": "BP"
    }
  },
  {
    "type": "node",
    "id": 135633811,
    "lat": 47.3981100,
    "lon": 8.5399575,
    "tags": {
      "addr:city": "Zürich",
      "addr:country": "CH",
      "addr:housenumber": "18",
      "addr:postcode": "8057",
      "addr:street": "Wehntalerstrasse",
      "amenity": "fuel",
      "brand": "Migrol",
      "fuel:diesel": "yes",
      "fuel:octane_95": "yes",
      "fuel:octane_98": "yes",
      "name": "Migrol Tankstelle",
      "operator": "Migrol",
      "payment:american_express": "yes",
      "payment:maestro": "yes",
      "payment:mastercard": "yes",
      "payment:notes": "yes",
      "payment:visa": "yes",
      "shop": "no"
    }
  },
  {
    "type": "node",
    "id": 148213917,
    "lat": 47.0067564,
    "lon": 7.1099653,
    "tags": {
      "amenity": "fuel",
      "name": "Avia",
      "operator": "Avia"
    }
  },
  {
    "type": "node",
    "id": 148466650,
    "lat": 47.4386177,
    "lon": 8.3478623,
    "tags": {
      "amenity": "fuel",
      "name": "Würrenlos",
      "operator": "Shell"
    }
  },
  {
    "type": "node",
    "id": 148466654,
    "lat": 47.4382680,
    "lon": 8.3471910,
    "tags": {
      "amenity": "fuel",
      "name": "Würrenlos",
      "operator": "Shell"
    }
  },
  {
    "type": "node",
    "id": 153289980,
    "lat": 47.5388779,
    "lon": 7.7344073,
    "tags": {
      "amenity": "fuel",
      "name": "coop",
      "operator": "coop",
      "wheelchair": "yes"
    }
  },
  {
    "type": "node",
    "id": 171100087,
    "lat": 47.2026049,
    "lon": 9.0070436,
    "tags": {
      "amenity": "fuel"
    }
  },
  {
    "type": "node",
    "id": 179047160,
    "lat": 47.2326856,
    "lon": 8.6143519,
    "tags": {
      "amenity": "fuel",
      "name": "Migrol",
      "wheelchair": "limited"
    }
  },
  {
    "type": "node",
    "id": 182812681,
    "lat": 47.0111586,
    "lon": 9.5123249,
    "tags": {
      "amenity": "fuel",
      "created_by": "JOSM",
      "operator": "BP",
      "wheelchair": "yes"
    }
  },
  {
    "type": "node",
    "id": 190344999,
    "lat": 47.3795583,
    "lon": 9.5445168,
    "tags": {
      "amenity": "fuel",
      "name": "Schöntalgarage",
      "operator": "BP"
    }
  },
  {
    "type": "node",
    "id": 194647104,
    "lat": 47.4149057,
    "lon": 9.6323467,
    "tags": {
      "amenity": "fuel",
      "name": "Coop pronto, Heerbrugg",
      "operator": "Coop"
    }
  },
  {
    "type": "node",
    "id": 201387216,
    "lat": 47.4352310,
    "lon": 9.1387665,
    "tags": {
      "amenity": "fuel",
      "fuel:diesel": "yes",
      "fuel:octane_95": "yes",
      "fuel:octane_98": "yes",
      "name": "Coop pronto"
    }
  },
  {
    "type": "node",
    "id": 201467430,
    "lat": 47.4456131,
    "lon": 9.1489585,
    "tags": {
      "amenity": "fuel",
      "name": "Agip"
    }
  },
  {
    "type": "node",
    "id": 203470841,
    "lat": 47.4513754,
    "lon": 9.1553713,
    "tags": {
      "amenity": "fuel",
      "created_by": "Potlatch 0.6",
      "fuel:cng": "yes",
      "fuel:diesel": "yes",
      "fuel:octane_95": "yes",
      "fuel:octane_98": "yes",
      "operator": "BP"
    }
  },
  {
    "type": "node",
    "id": 206380323,
    "lat": 47.0438236,
    "lon": 8.3643170,
    "tags": {
      "amenity": "fuel"
    }
  },
  {
    "type": "node",
    "id": 207089654,
    "lat": 47.2140371,
    "lon": 7.7435000,
    "tags": {
      "amenity": "fuel",
      "fuel:octane_95": "yes",
      "opening_hours": "24/7",
      "source": "knowledge"
    }
  },
  {
    "type": "node",
    "id": 208814607,
    "lat": 47.1958318,
    "lon": 7.6992632,
    "tags": {
      "amenity": "fuel",
      "created_by": "JOSM",
      "name": "Landi"
    }
  },
  {
    "type": "node",
    "id": 213320801,
    "lat": 47.2291541,
    "lon": 9.0232324,
    "tags": {
      "amenity": "fuel",
      "created_by": "JOSM",
      "name": "Shell",
      "wheelchair": "no"
    }
  },
  {
    "type": "node",
    "id": 220030470,
    "lat": 47.5023332,
    "lon": 8.0316396,
    "tags": {
      "amenity": "fuel",
      "brand": "Tamoil",
      "fuel:HGV_diesel": "yes",
      "fuel:octane_95": "yes",
      "fuel:octane_98": "yes",
      "opening_hours": "24/7",
      "shop": "yes"
    }
  },
  {
    "type": "node",
    "id": 220830818,
    "lat": 47.2188515,
    "lon": 7.7873299,
    "tags": {
      "amenity": "fuel",
      "created_by": "JOSM",
      "name": "Migrol"
    }
  },
  {
    "type": "node",
    "id": 224161304,
    "lat": 47.2173961,
    "lon": 7.7687810,
    "tags": {
      "amenity": "fuel",
      "name": "Coop",
      "shop": "convenience",
      "wheelchair": "limited"
    }
  },
  {
    "type": "node",
    "id": 240029878,
    "lat": 47.7919265,
    "lon": 8.6098464,
    "tags": {
      "amenity": "fuel",
      "name": "Bargen (SH)",
      "population": "248"
    }
  },
  {
    "type": "node",
    "id": 243881645,
    "lat": 47.5882273,
    "lon": 8.8857709,
    "tags": {
      "amenity": "fuel",
      "name": "AVIA"
    }
  },
  {
    "type": "node",
    "id": 244479991,
    "lat": 46.8165398,
    "lon": 9.2670462,
    "tags": {
      "amenity": "fuel",
      "name": "Coop"
    }
  },
  {
    "type": "node",
    "id": 246650988,
    "lat": 47.2301190,
    "lon": 8.9619756,
    "tags": {
      "amenity": "fuel",
      "created_by": "JOSM",
      "name": "Migrol"
    }
  },
  {
    "type": "node",
    "id": 246962727,
    "lat": 47.5270833,
    "lon": 7.7006003,
    "tags": {
      "addr:city": "Pratteln",
      "addr:housenumber": "22",
      "addr:postcode": "4133",
      "addr:street": "Götzisbodenweg",
      "amenity": "fuel",
      "fuel:cng": "yes",
      "name": "BP",
      "operator": "BP"
    }
  },
  {
    "type": "node",
    "id": 247345256,
    "lat": 47.2269883,
    "lon": 7.8404587,
    "tags": {
      "amenity": "fuel",
      "name": "Agip",
      "operator": "Agip"
    }
  },
  {
    "type": "node",
    "id": 247697427,
    "lat": 47.6602469,
    "lon": 8.8750941,
    "tags": {
      "amenity": "fuel",
      "fuel:diesel": "yes",
      "fuel:octane_95": "yes",
      "fuel:octane_98": "yes",
      "operator": "Avia",
      "shop": "convenience"
    }
  },
  {
    "type": "node",
    "id": 247702040,
    "lat": 47.7047402,
    "lon": 8.8205486,
    "tags": {
      "amenity": "fuel",
      "operator": "MIGROL"
    }
  },
  {
    "type": "node",
    "id": 247702174,
    "lat": 47.7069119,
    "lon": 8.8201795,
    "tags": {
      "amenity": "fuel",
      "operator": "MIGROL"
    }
  },
  {
    "type": "node",
    "id": 247702175,
    "lat": 47.7094549,
    "lon": 8.8207160,
    "tags": {
      "amenity": "fuel",
      "operator": "AGIP"
    }
  },
  {
    "type": "node",
    "id": 247911188,
    "lat": 47.2034632,
    "lon": 8.6851680,
    "tags": {
      "amenity": "fuel",
      "fuel:diesel": "yes",
      "fuel:octane_95": "yes",
      "fuel:octane_98": "yes",
      "name": "Coop Pronto",
      "shop": "convenience"
    }
  },
  {
    "type": "node",
    "id": 248973336,
    "lat": 47.2007880,
    "lon": 9.3375706,
    "tags": {
      "amenity": "fuel",
      "created_by": "JOSM",
      "name": "Avia"
    }
  },
  {
    "type": "node",
    "id": 249500787,
    "lat": 47.3748270,
    "lon": 8.6428183,
    "tags": {
      "addr:city": "Fällanden",
      "addr:housenumber": "41",
      "addr:postcode": "8117",
      "addr:street": "Schwerzenbachstrasse",
      "amenity": "fuel",
      "name": "SOCAR"
    }
  },
  {
    "type": "node",
    "id": 250067276,
    "lat": 47.4012329,
    "lon": 8.5011516,
    "tags": {
      "addr:city": "Zürich",
      "addr:country": "CH",
      "addr:housenumber": "159",
      "addr:postcode": "8049",
      "addr:street": "Limmattalstrasse",
      "amenity": "fuel",
      "brand": "SOCAR",
      "fuel:diesel": "yes",
      "fuel:octane_95": "yes",
      "fuel:octane_98": "yes",
      "name": "SOCAR Rose Zürich",
      "opening_hours": "24/7",
      "payment:american_express": "yes",
      "payment:maestro": "yes",
      "payment:mastercard": "yes",
      "payment:notes": "yes",
      "payment:visa": "yes",
      "shop": "kiosk"
    }
  },
  {
    "type": "node",
    "id": 251364446,
    "lat": 47.5659008,
    "lon": 9.0967582,
    "tags": {
      "amenity": "fuel",
      "operator": "Coop",
      "wheelchair": "yes"
    }
  },
  {
    "type": "node",
    "id": 251364447,
    "lat": 47.5630291,
    "lon": 9.1048076,
    "tags": {
      "amenity": "fuel",
      "brand": "Shell",
      "name": "Migrol",
      "opening_hours": "Mo-Fr 06:00-22:00; Sa 07:00-22:00; Su 08:00-20:00",
      "operator": "Migrol",
      "shop": "yes"
    }
  },
  {
    "type": "node",
    "id": 251364453,
    "lat": 47.5644097,
    "lon": 9.0999412,
    "tags": {
      "amenity": "fuel",
      "fuel:cng": "yes",
      "fuel:diesel": "yes",
      "fuel:octane_95": "yes",
      "fuel:octane_98": "yes",
      "operator": "Garage Krapf AG",
      "website": "http://www.garage-krapf.ch"
    }
  },
  {
    "type": "node",
    "id": 251364454,
    "lat": 47.5622326,
    "lon": 9.1211508,
    "tags": {
      "amenity": "fuel",
      "brand": "BP",
      "operator": "AMAG"
    }
  },
  {
    "type": "node",
    "id": 251364456,
    "lat": 47.5625356,
    "lon": 9.1232497,
    "tags": {
      "amenity": "fuel",
      "operator": "AVIA"
    }
  },
  {
    "type": "node",
    "id": 251540984,
    "lat": 47.5101487,
    "lon": 8.3679597,
    "tags": {
      "amenity": "fuel"
    }
  },
  {
    "type": "node",
    "id": 253239439,
    "lat": 46.9650506,
    "lon": 7.4638670,
    "tags": {
      "amenity": "fuel",
      "name": "Shell",
      "operator": "Shell",
      "wheelchair": "yes"
    }
  },
  {
    "type": "node",
    "id": 254289007,
    "lat": 47.2259769,
    "lon": 8.2621212,
    "tags": {
      "amenity": "fuel",
      "name": "Scherer Hitzkirch"
    }
  },
  {
    "type": "node",
    "id": 255007349,
    "lat": 47.4437347,
    "lon": 8.4655216,
    "tags": {
      "amenity": "fuel",
      "created_by": "Potlatch 0.10f",
      "operator": "coop"
    }
  },
  {
    "type": "node",
    "id": 256221360,
    "lat": 47.1647171,
    "lon": 7.4235966,
    "tags": {
      "amenity": "fuel",
      "created_by": "Potlatch 0.8a"
    }
  },
  {
    "type": "node",
    "id": 256757662,
    "lat": 46.7809278,
    "lon": 7.6041999,
    "tags": {
      "amenity": "fuel",
      "operator": "Tamoil"
    }
  },
  {
    "type": "node",
    "id": 257281284,
    "lat": 47.1884834,
    "lon": 8.3964317,
    "tags": {
      "amenity": "fuel",
      "brand": "BP",
      "name": "Auto Suter",
      "wheelchair": "limited"
    }
  },
  {
    "type": "node",
    "id": 257282729,
    "lat": 47.1964722,
    "lon": 8.4342471,
    "tags": {
      "amenity": "fuel",
      "name": "AVIA",
      "operator": "Avia"
    }
  },
  {
    "type": "node",
    "id": 257282731,
    "lat": 47.1967868,
    "lon": 8.4343910,
    "tags": {
      "amenity": "fuel",
      "name": "AVIA",
      "operator": "Avia",
      "shop": "kiosk"
    }
  },
  {
    "type": "node",
    "id": 258875594,
    "lat": 47.1913959,
    "lon": 8.8947716,
    "tags": {
      "amenity": "fuel",
      "name": "Avia"
    }
  },
  {
    "type": "node",
    "id": 259022290,
    "lat": 47.4305794,
    "lon": 8.3567011,
    "tags": {
      "amenity": "fuel",
      "operator": "Shell"
    }
  },
  {
    "type": "node",
    "id": 260209027,
    "lat": 47.1887914,
    "lon": 8.9954747,
    "tags": {
      "amenity": "fuel",
      "created_by": "JOSM",
      "name": "Agrola"
    }
  },
  {
    "type": "node",
    "id": 260443215,
    "lat": 47.5808213,
    "lon": 7.5941178,
    "tags": {
      "amenity": "fuel",
      "fuel:diesel": "yes",
      "fuel:octane_95": "yes",
      "fuel:octane_98": "yes",
      "operator": "Migrol"
    }
  },
  {
    "type": "node",
    "id": 261741477,
    "lat": 47.0254527,
    "lon": 6.8895650,
    "tags": {
      "amenity": "fuel",
      "name": "Le Pit-Stop"
    }
  },
  {
    "type": "node",
    "id": 262931005,
    "lat": 46.5513518,
    "lon": 7.3760619,
    "tags": {
      "amenity": "fuel"
    }
  },
  {
    "type": "node",
    "id": 263923036,
    "lat": 47.3555523,
    "lon": 8.3260826,
    "tags": {
      "amenity": "fuel",
      "operator": "Shell"
    }
  },
  {
    "type": "node",
    "id": 264065504,
    "lat": 47.4155139,
    "lon": 8.5903409,
    "tags": {
      "amenity": "fuel",
      "name": "Shell"
    }
  },
  {
    "type": "node",
    "id": 264073160,
    "lat": 47.4665171,
    "lon": 8.2915271,
    "tags": {
      "amenity": "fuel",
      "name": "coop pronto",
      "wheelchair": "yes"
    }
  },
  {
    "type": "node",
    "id": 264378536,
    "lat": 47.1301400,
    "lon": 7.6156648,
    "tags": {
      "amenity": "fuel",
      "source": "survey"
    }
  },
  {
    "type": "node",
    "id": 264529525,
    "lat": 46.9715346,
    "lon": 9.5514028,
    "tags": {
      "amenity": "fuel",
      "name": "Coop",
      "wheelchair": "yes"
    }
  },
  {
    "type": "node",
    "id": 264530018,
    "lat": 47.2365959,
    "lon": 7.2824556,
    "tags": {
      "amenity": "fuel",
      "created_by": "Potlatch 0.9a"
    }
  },
  {
    "type": "node",
    "id": 264610443,
    "lat": 47.1669957,
    "lon": 7.4346003,
    "tags": {
      "amenity": "fuel"
    }
  },
  {
    "type": "node",
    "id": 264771144,
    "lat": 47.3448999,
    "lon": 7.9074251,
    "tags": {
      "amenity": "fuel",
      "name": "Shell",
      "source": "survey"
    }
  },
  {
    "type": "node",
    "id": 264794333,
    "lat": 47.4192591,
    "lon": 8.6246245,
    "tags": {
      "amenity": "fuel",
      "created_by": "Potlatch 0.9a",
      "name": "COOP"
    }
  },
  {
    "type": "node",
    "id": 264794355,
    "lat": 47.4128994,
    "lon": 8.6168482,
    "tags": {
      "amenity": "fuel",
      "created_by": "Potlatch 0.9a",
      "name": "BP",
      "wheelchair": "yes"
    }
  },
  {
    "type": "node",
    "id": 264794365,
    "lat": 47.4199994,
    "lon": 8.6262741,
    "tags": {
      "amenity": "fuel",
      "name": "Migrol",
      "wheelchair": "no",
      "wheelchair:description": "Automatentankstelle"
    }
  },
  {
    "type": "node",
    "id": 264889459,
    "lat": 47.3041887,
    "lon": 8.6907424,
    "tags": {
      "amenity": "fuel",
      "operator": "Migrol"
    }
  },
  {
    "type": "node",
    "id": 264940312,
    "lat": 47.1378842,
    "lon": 8.5868892,
    "tags": {
      "amenity": "fuel",
      "operator": "AVIA"
    }
  },
  {
    "type": "node",
    "id": 265569040,
    "lat": 47.2742006,
    "lon": 8.7248486,
    "tags": {
      "amenity": "fuel",
      "created_by": "JOSM",
      "name": "Avia"
    }
  },
  {
    "type": "node",
    "id": 265627180,
    "lat": 46.9590553,
    "lon": 7.4559087,
    "tags": {
      "amenity": "fuel",
      "name": "Migrol Breitenrain",
      "operator": "Migrol"
    }
  },
  {
    "type": "node",
    "id": 265718046,
    "lat": 46.9435757,
    "lon": 6.8301809,
    "tags": {
      "addr:city": "Boudry",
      "addr:postcode": "2017",
      "amenity": "fuel",
      "name": "Les Tilles",
      "operator": "Miniprix",
      "phone": "+41 32 7290290"
    }
  },
  {
    "type": "node",
    "id": 265823655,
    "lat": 47.0779673,
    "lon": 7.5746866,
    "tags": {
      "amenity": "fuel",
      "fuel:cng": "yes",
      "name": "Coop",
      "operator": "Coop"
    }
  },
  {
    "type": "node",
    "id": 266285284,
    "lat": 47.4502033,
    "lon": 8.2907357,
    "tags": {
      "amenity": "fuel",
      "name": "Socar",
      "operator": "Socar"
    }
  },
  {
    "type": "node",
    "id": 266285329,
    "lat": 47.4518737,
    "lon": 8.2897349,
    "tags": {
      "amenity": "fuel",
      "name": "Tamoil"
    }
  },
  {
    "type": "node",
    "id": 266542839,
    "lat": 46.5458000,
    "lon": 6.5871529,
    "tags": {
      "amenity": "fuel",
      "name": "BP",
      "operator": "BP"
    }
  },
  {
    "type": "node",
    "id": 266542840,
    "lat": 46.5488270,
    "lon": 6.5799914,
    "tags": {
      "addr:city": "Crissier",
      "addr:housenumber": "2",
      "addr:street": "Route de Prilly",
      "amenity": "fuel",
      "name": "Tamoil"
    }
  },
  {
    "type": "node",
    "id": 266542843,
    "lat": 47.0977652,
    "lon": 6.8367095,
    "tags": {
      "amenity": "fuel",
      "name": "Tamoil"
    }
  },
  {
    "type": "node",
    "id": 266561086,
    "lat": 47.3233007,
    "lon": 7.8044356,
    "tags": {
      "amenity": "fuel",
      "name": "Tamoil"
    }
  },
  {
    "type": "node",
    "id": 266810613,
    "lat": 47.5766409,
    "lon": 7.5978842,
    "tags": {
      "amenity": "fuel",
      "name": "Avia",
      "operator": "Avia"
    }
  },
  {
    "type": "node",
    "id": 266825152,
    "lat": 47.1812476,
    "lon": 8.8976164,
    "tags": {
      "amenity": "fuel",
      "name": "Agrola",
      "wheelchair": "yes"
    }
  },
  {
    "type": "node",
    "id": 266953468,
    "lat": 47.2531522,
    "lon": 8.6195338,
    "tags": {
      "addr:housenumber": "340",
      "addr:street": "Seestrasse",
      "amenity": "fuel",
      "brand": "Migrol",
      "name": "Seegarage Müller"
    }
  },
  {
    "type": "node",
    "id": 267053552,
    "lat": 46.5534110,
    "lon": 6.5707656,
    "tags": {
      "amenity": "fuel",
      "name": "Migrol"
    }
  },
  {
    "type": "node",
    "id": 267053810,
    "lat": 46.5055640,
    "lon": 6.4859824,
    "tags": {
      "amenity": "fuel",
      "name": "Agip",
      "operator": "Agip"
    }
  },
  {
    "type": "node",
    "id": 267053813,
    "lat": 46.5009100,
    "lon": 6.4844802,
    "tags": {
      "amenity": "fuel",
      "name": "Agip",
      "operator": "Agip"
    }
  },
  {
    "type": "node",
    "id": 267211865,
    "lat": 46.4744098,
    "lon": 6.4131576,
    "tags": {
      "amenity": "fuel",
      "name": "BP",
      "opening_hours": "Mo-Su,PH 00:00-24:00",
      "operator": "BP"
    }
  },
  {
    "type": "node",
    "id": 267212190,
    "lat": 46.5235830,
    "lon": 6.5981566,
    "tags": {
      "amenity": "fuel"
    }
  },
  {
    "type": "node",
    "id": 267494519,
    "lat": 47.1297758,
    "lon": 7.4480369,
    "tags": {
      "amenity": "fuel",
      "created_by": "Potlatch 0.9c"
    }
  },
  {
    "type": "node",
    "id": 267924554,
    "lat": 47.3971141,
    "lon": 8.0409728,
    "tags": {
      "amenity": "fuel",
      "name": "Tankstelle Kreuz",
      "name:de": "Ruedi Rüssel"
    }
  },
  {
    "type": "node",
    "id": 268469414,
    "lat": 47.3695212,
    "lon": 8.5107127,
    "tags": {
      "addr:city": "Zürich",
      "addr:country": "CH",
      "addr:housenumber": "178",
      "addr:postcode": "8055",
      "addr:street": "Talwiesenstrasse",
      "amenity": "fuel",
      "brand": "Independent",
      "fuel:diesel": "yes",
      "fuel:octane_95": "yes",
      "fuel:octane_98": "yes",
      "name": "Tankstelle Wyss",
      "wheelchair": "yes",
      "wheelchair:description": "bediente Tankstelle"
    }
  },
  {
    "type": "node",
    "id": 268742610,
    "lat": 47.4048317,
    "lon": 8.0919261,
    "tags": {
      "amenity": "fuel"
    }
  },
  {
    "type": "node",
    "id": 268892714,
    "lat": 46.7653615,
    "lon": 7.6258230,
    "tags": {
      "amenity": "fuel",
      "operator": "Shell"
    }
  },
  {
    "type": "node",
    "id": 268893437,
    "lat": 46.7614100,
    "lon": 7.6272964,
    "tags": {
      "amenity": "fuel",
      "name": "Grabengut"
    }
  },
  {
    "type": "node",
    "id": 269050377,
    "lat": 47.3566826,
    "lon": 8.7118888,
    "tags": {
      "amenity": "fuel",
      "operator": "private"
    }
  },
  {
    "type": "node",
    "id": 269059096,
    "lat": 46.7785490,
    "lon": 6.6490170,
    "tags": {
      "addr:city": "Yverdon-les-Bains",
      "addr:country": "CH",
      "addr:postcode": "1400",
      "amenity": "fuel",
      "car_wash": "yes",
      "name": "Cuendet",
      "opening_hours": "06:00-22:00",
      "wheelchair": "yes"
    }
  },
  {
    "type": "node",
    "id": 269059212,
    "lat": 46.7648768,
    "lon": 6.6495309,
    "tags": {
      "amenity": "fuel",
      "name": "Shell",
      "operator": "Shell",
      "toilets:wheelchair": "yes",
      "wheelchair": "yes"
    }
  },
  {
    "type": "node",
    "id": 269120240,
    "lat": 47.3521549,
    "lon": 8.7226366,
    "tags": {
      "amenity": "fuel",
      "created_by": "JOSM",
      "name": "Shell Tankstelle",
      "operator": "Shell"
    }
  },
  {
    "type": "node",
    "id": 269120252,
    "lat": 47.3504828,
    "lon": 8.7137207,
    "tags": {
      "amenity": "fuel",
      "name": "BP"
    }
  },
  {
    "type": "node",
    "id": 269304240,
    "lat": 46.5335973,
    "lon": 6.5850826,
    "tags": {
      "amenity": "fuel",
      "name": "Migrol",
      "shop": "convenience"
    }
  },
  {
    "type": "node",
    "id": 269304246,
    "lat": 46.5345275,
    "lon": 6.5652677,
    "tags": {
      "amenity": "fuel"
    }
  },
  {
    "type": "node",
    "id": 269423023,
    "lat": 47.3700641,
    "lon": 8.6945075,
    "tags": {
      "amenity": "fuel",
      "fuel:1_25": "yes",
      "fuel:GTL_diesel": "no",
      "fuel:HGV_diesel": "no",
      "fuel:biodiesel": "no",
      "fuel:biogas": "no",
      "fuel:cng": "no",
      "fuel:diesel": "yes",
      "fuel:electricity": "no",
      "fuel:lpg": "no",
      "fuel:octane_100": "no",
      "fuel:octane_95": "no",
      "fuel:octane_98": "yes",
      "name": "Roos",
      "operator": "Roos"
    }
  },
  {
    "type": "node",
    "id": 269450517,
    "lat": 47.5777955,
    "lon": 7.5964463,
    "tags": {
      "amenity": "fuel",
      "fuel:diesel": "yes",
      "fuel:octane_91": "no",
      "fuel:octane_95": "yes",
      "fuel:octane_98": "yes",
      "name": "coop",
      "operator": "coop"
    }
  },
  {
    "type": "node",
    "id": 269654731,
    "lat": 47.5484517,
    "lon": 7.5464090,
    "tags": {
      "addr:city": "Allschwil",
      "addr:housenumber": "91",
      "addr:postcode": "4123",
      "addr:street": "Binningerstrasse",
      "amenity": "fuel",
      "fuel:cng": "yes",
      "name": "Shell",
      "wheelchair": "yes"
    }
  },
  {
    "type": "node",
    "id": 269665687,
    "lat": 46.7140743,
    "lon": 7.5662706,
    "tags": {
      "amenity": "fuel",
      "fuel:diesel": "yes",
      "fuel:octane_95": "yes",
      "name": "Agrola"
    }
  },
  {
    "type": "node",
    "id": 269952262,
    "lat": 46.5098465,
    "lon": 6.6504940,
    "tags": {
      "amenity": "fuel",
      "name": "Shell",
      "operator": "Shell"
    }
  },
  {
    "type": "node",
    "id": 270051291,
    "lat": 46.7283004,
    "lon": 8.1836091,
    "tags": {
      "amenity": "fuel",
      "fuel:diesel": "yes",
      "fuel:octane_100": "yes",
      "fuel:octane_95": "yes",
      "operator": "Shell",
      "shop": "kiosk"
    }
  },
  {
    "type": "node",
    "id": 270156438,
    "lat": 47.0739754,
    "lon": 8.2061972,
    "tags": {
      "amenity": "fuel",
      "fuel:diesel": "yes",
      "fuel:octane_95": "yes",
      "name": "Agrola"
    }
  },
  {
    "type": "node",
    "id": 270288402,
    "lat": 46.9694323,
    "lon": 8.3525486,
    "tags": {
      "addr:city": "Stans",
      "addr:housenumber": "100",
      "addr:postcode": "6370",
      "addr:street": "Stansstaderstrasse",
      "amenity": "fuel",
      "name": "Agrola TopShop",
      "operator": "Agrola"
    }
  },
  {
    "type": "node",
    "id": 270288802,
    "lat": 46.9682968,
    "lon": 8.3536859,
    "tags": {
      "amenity": "fuel",
      "name": "Auto Wagner"
    }
  },
  {
    "type": "node",
    "id": 270505837,
    "lat": 47.3244632,
    "lon": 7.8990052,
    "tags": {
      "amenity": "fuel"
    }
  },
  {
    "type": "node",
    "id": 271223009,
    "lat": 47.3534438,
    "lon": 8.5768921,
    "tags": {
      "addr:city": "Zürich",
      "addr:country": "CH",
      "addr:housenumber": "351",
      "addr:postcode": "8008",
      "addr:street": "Forchstrasse",
      "amenity": "fuel",
      "automated": "yes",
      "brand": "BP",
      "fuel:diesel": "yes",
      "fuel:octane_95": "yes",
      "name": "BP Balgrist",
      "opening_hours": "24/7",
      "self_service": "yes",
      "shop": "no",
      "wheelchair": "no"
    }
  },
  {
    "type": "node",
    "id": 271882233,
    "lat": 47.3766726,
    "lon": 9.2794791,
    "tags": {
      "amenity": "fuel",
      "name": "COOP",
      "wheelchair": "yes"
    }
  },
  {
    "type": "node",
    "id": 272631681,
    "lat": 47.1804162,
    "lon": 7.6656035,
    "tags": {
      "amenity": "fuel",
      "source": "knowledge"
    }
  },
  {
    "type": "node",
    "id": 272725604,
    "lat": 47.2258573,
    "lon": 7.6161562,
    "tags": {
      "amenity": "fuel",
      "brand": "BP",
      "name": "Deitingen Süd",
      "operator": "BP"
    }
  },
  {
    "type": "node",
    "id": 273141695,
    "lat": 47.3916685,
    "lon": 9.2760473,
    "tags": {
      "amenity": "fuel",
      "name": "Agrola"
    }
  },
  {
    "type": "node",
    "id": 273223793,
    "lat": 47.5615066,
    "lon": 7.5994968,
    "tags": {
      "amenity": "fuel",
      "operator": "Migrol"
    }
  },
  {
    "type": "node",
    "id": 273529123,
    "lat": 46.8487124,
    "lon": 7.1895760,
    "tags": {
      "addr:city": "Düdingen",
      "addr:housenumber": "36",
      "addr:postcode": "3186",
      "addr:street": "Hauptstrasse",
      "amenity": "fuel",
      "designation": "Miniprix / Ruedirüssel",
      "fuel:diesel": "yes",
      "fuel:octane_95": "yes",
      "fuel:octane_98": "yes",
      "name": "Zentrum-Garage Düdingen AG",
      "operator": "Renault / Peugeot Minipix TS",
      "source": "Miniprix"
    }
  },
  {
    "type": "node",
    "id": 273529124,
    "lat": 46.8445768,
    "lon": 7.1907102,
    "tags": {
      "amenity": "fuel",
      "fuel:diesel": "yes",
      "fuel:octane_95": "yes",
      "name": "Garage Vonlanthen AG",
      "operator": "Tamoil"
    }
  },
  {
    "type": "node",
    "id": 274077459,
    "lat": 47.0158947,
    "lon": 6.9063453,
    "tags": {
      "amenity": "fuel",
      "name": "Garage de la Station",
      "operator": "HK"
    }
  },
  {
    "type": "node",
    "id": 274592567,
    "lat": 47.4896462,
    "lon": 7.5982340,
    "tags": {
      "amenity": "fuel",
      "name": "Migros Tankstelle",
      "operator": "Migros"
    }
  },
  {
    "type": "node",
    "id": 274678779,
    "lat": 47.5258531,
    "lon": 7.6037741,
    "tags": {
      "amenity": "fuel",
      "name": "Socar"
    }
  },
  {
    "type": "node",
    "id": 274716746,
    "lat": 47.4236322,
    "lon": 7.5047195,
    "tags": {
      "amenity": "fuel",
      "created_by": "Potlatch 0.9c"
    }
  },
  {
    "type": "node",
    "id": 274815548,
    "lat": 47.2466719,
    "lon": 8.4610784,
    "tags": {
      "addr:city": "Mettmenstetten",
      "addr:housenumber": "30",
      "addr:postcode": "8932",
      "addr:street": "Zürichstrasse",
      "amenity": "fuel",
      "name": "AVIA"
    }
  },
  {
    "type": "node",
    "id": 274978894,
    "lat": 47.4832546,
    "lon": 7.5461208,
    "tags": {
      "amenity": "fuel",
      "created_by": "Potlatch 0.9c"
    }
  },
  {
    "type": "node",
    "id": 274980462,
    "lat": 47.2130312,
    "lon": 8.3638034,
    "tags": {
      "amenity": "fuel"
    }
  },
  {
    "type": "node",
    "id": 274980463,
    "lat": 47.2980447,
    "lon": 8.3164949,
    "tags": {
      "amenity": "fuel",
      "operator": "Shell"
    }
  },
  {
    "type": "node",
    "id": 274980567,
    "lat": 47.3115367,
    "lon": 8.2467294,
    "tags": {
      "amenity": "fuel"
    }
  },
  {
    "type": "node",
    "id": 275422339,
    "lat": 46.9454893,
    "lon": 7.4712058,
    "tags": {
      "addr:city": "Bern",
      "addr:country": "CH",
      "addr:housenumber": "44",
      "addr:postcode": "3006",
      "addr:street": "Gantrischstrasse",
      "alt_name": "Tankstelle Ostring Garage",
      "amenity": "fuel",
      "brand": "Shell",
      "name": "Shell",
      "opening_hours": "24/7",
      "operator": "Ostring Garage Lack AG",
      "phone": "+41 31 3562929",
      "website": "http://www.ostring-garage.ch"
    }
  },
  {
    "type": "node",
    "id": 275746833,
    "lat": 47.4724466,
    "lon": 7.5978097,
    "tags": {
      "amenity": "fuel",
      "created_by": "Potlatch 0.9c"
    }
  },
  {
    "type": "node",
    "id": 276021507,
    "lat": 47.0527663,
    "lon": 6.7337075,
    "tags": {
      "amenity": "fuel",
      "created_by": "Potlatch 0.9c"
    }
  },
  {
    "type": "node",
    "id": 276047520,
    "lat": 47.1462267,
    "lon": 9.5011305,
    "tags": {
      "amenity": "fuel",
      "operator": "BP"
    }
  },
  {
    "type": "node",
    "id": 276047521,
    "lat": 47.1459190,
    "lon": 9.5003844,
    "tags": {
      "amenity": "fuel",
      "operator": "BP"
    }
  },
  {
    "type": "node",
    "id": 276068551,
    "lat": 47.3896573,
    "lon": 7.3688517,
    "tags": {
      "amenity": "fuel",
      "created_by": "Potlatch 0.9c"
    }
  },
  {
    "type": "node",
    "id": 276414834,
    "lat": 47.1985651,
    "lon": 7.7869265,
    "tags": {
      "amenity": "fuel",
      "name": "Garage Brunnbach",
      "shop": "no"
    }
  },
  {
    "type": "node",
    "id": 276602502,
    "lat": 46.6870484,
    "lon": 7.6677166,
    "tags": {
      "amenity": "fuel",
      "name": "BP",
      "operator": "BP",
      "wheelchair": "limited"
    }
  },
  {
    "type": "node",
    "id": 277469389,
    "lat": 47.7030543,
    "lon": 8.6453087,
    "tags": {
      "amenity": "fuel",
      "brand": "SOCAR",
      "name": "Tankstelle Gruben",
      "opening_hours": "24/7",
      "operator": "SOCAR"
    }
  },
  {
    "type": "node",
    "id": 277755862,
    "lat": 47.1201627,
    "lon": 9.0567370,
    "tags": {
      "amenity": "fuel",
      "brand": "BP"
    }
  },
  {
    "type": "node",
    "id": 277945548,
    "lat": 47.4733451,
    "lon": 9.4688746,
    "tags": {
      "amenity": "fuel",
      "brand": "Agrola",
      "name": "Agrola Goldach",
      "phone": "+4171 844 30 08",
      "website": "http://www.volg.ch/"
    }
  },
  {
    "type": "node",
    "id": 277945580,
    "lat": 47.4787154,
    "lon": 9.4689286,
    "tags": {
      "amenity": "fuel",
      "name": "City-Garage AG",
      "shop": "car"
    }
  },
  {
    "type": "node",
    "id": 278205001,
    "lat": 47.2296403,
    "lon": 8.8438608,
    "tags": {
      "amenity": "fuel",
      "name": "Esso",
      "opening_hours": "Mo-Su 5:30-22:00",
      "operator": "Esso",
      "shop": "supermarket",
      "website": "https://www.migrolino.ch/de/standorte/socar-jona/?_o=sl"
    }
  },
  {
    "type": "node",
    "id": 278205018,
    "lat": 47.2969613,
    "lon": 8.8398837,
    "tags": {
      "amenity": "fuel",
      "name": "Avia",
      "operator": "avia"
    }
  },
  {
    "type": "node",
    "id": 278232271,
    "lat": 46.6047314,
    "lon": 6.5270144,
    "tags": {
      "amenity": "fuel"
    }
  },
  {
    "type": "node",
    "id": 278792162,
    "lat": 46.9369824,
    "lon": 7.4755179,
    "tags": {
      "amenity": "fuel",
      "operator": "Migrol"
    }
  },
  {
    "type": "node",
    "id": 279311963,
    "lat": 46.5973608,
    "lon": 6.5430462,
    "tags": {
      "amenity": "fuel",
      "wheelchair": "yes"
    }
  },
  {
    "type": "node",
    "id": 279370610,
    "lat": 47.4890282,
    "lon": 8.2880500,
    "tags": {
      "amenity": "fuel",
      "name": "Freie Tankstelle Velo Meier"
    }
  },
  {
    "type": "node",
    "id": 279909825,
    "lat": 47.2040191,
    "lon": 8.7641063,
    "tags": {
      "amenity": "fuel",
      "name": "Shell + Migrolino"
    }
  },
  {
    "type": "node",
    "id": 280344720,
    "lat": 47.5812401,
    "lon": 8.3081631,
    "tags": {
      "amenity": "fuel"
    }
  },
  {
    "type": "node",
    "id": 280348868,
    "lat": 47.5911059,
    "lon": 8.2178467,
    "tags": {
      "amenity": "fuel"
    }
  },
  {
    "type": "node",
    "id": 280528115,
    "lat": 46.9546494,
    "lon": 7.4331900,
    "tags": {
      "amenity": "fuel",
      "fuel:diesel": "yes",
      "fuel:octane_95": "yes",
      "maxheight": "2.3",
      "name": "Migrol",
      "opening_hours": "Mo-Fr 07:00-22:00; Sa-Su 07:30-22:00",
      "operator": "Migrol",
      "wheelchair": "no"
    }
  },
  {
    "type": "node",
    "id": 281282674,
    "lat": 46.2596076,
    "lon": 6.9474870,
    "tags": {
      "amenity": "fuel",
      "operator": "Shell"
    }
  },
  {
    "type": "node",
    "id": 281283867,
    "lat": 46.3018161,
    "lon": 6.9782650,
    "tags": {
      "amenity": "fuel",
      "operator": "BP"
    }
  },
  {
    "type": "node",
    "id": 281284025,
    "lat": 46.3935598,
    "lon": 6.9215060,
    "tags": {
      "amenity": "fuel",
      "name": "Shell"
    }
  },
  {
    "type": "node",
    "id": 281284791,
    "lat": 46.1111272,
    "lon": 7.0770130,
    "tags": {
      "amenity": "fuel",
      "operator": "Tamoil"
    }
  },
  {
    "type": "node",
    "id": 281284810,
    "lat": 46.2740622,
    "lon": 7.0634701,
    "tags": {
      "amenity": "fuel"
    }
  },
  {
    "type": "node",
    "id": 281286146,
    "lat": 46.1099530,
    "lon": 7.0773462,
    "tags": {
      "amenity": "fuel",
      "operator": "BP"
    }
  },
  {
    "type": "node",
    "id": 281290981,
    "lat": 46.2458224,
    "lon": 6.9348951,
    "tags": {
      "amenity": "fuel",
      "operator": "BP"
    }
  },
  {
    "type": "node",
    "id": 281291631,
    "lat": 46.2362395,
    "lon": 6.9265364,
    "tags": {
      "amenity": "fuel",
      "name": "Garage Defago - Toyota",
      "operator": "Shell"
    }
  },
  {
    "type": "node",
    "id": 281571963,
    "lat": 46.9354211,
    "lon": 7.4800830,
    "tags": {
      "addr:city": "Muri b. Bern",
      "addr:country": "CH",
      "addr:housenumber": "25",
      "addr:postcode": "3074",
      "addr:street": "Thunstrasse",
      "amenity": "fuel",
      "name": "Autogarage Rolf Wenger",
      "operator": "Avia",
      "wheelchair": "yes"
    }
  },
  {
    "type": "node",
    "id": 281761432,
    "lat": 46.8986110,
    "lon": 8.2506888,
    "tags": {
      "amenity": "fuel",
      "name": "Socar",
      "operator": "Socar"
    }
  },
  {
    "type": "node",
    "id": 282180757,
    "lat": 47.4009426,
    "lon": 7.5424953,
    "tags": {
      "amenity": "fuel",
      "created_by": "Potlatch 0.10a",
      "name": "Remo Schmid",
      "operator": "AGIP"
    }
  },
  {
    "type": "node",
    "id": 282439888,
    "lat": 46.9732785,
    "lon": 7.4853250,
    "tags": {
      "amenity": "fuel",
      "fuel:diesel": "yes",
      "fuel:octane_100": "no",
      "fuel:octane_95": "yes",
      "fuel:octane_98": "no",
      "name": "Tamoil"
    }
  },
  {
    "type": "node",
    "id": 282458392,
    "lat": 47.2041777,
    "lon": 8.9493651,
    "tags": {
      "amenity": "fuel"
    }
  },
  {
    "type": "node",
    "id": 283045787,
    "lat": 47.4079233,
    "lon": 7.5421063,
    "tags": {
      "amenity": "fuel",
      "created_by": "Potlatch 0.10b",
      "name": "Garage Lantz"
    }
  },
  {
    "type": "node",
    "id": 283181019,
    "lat": 47.3860700,
    "lon": 8.5319750,
    "tags": {
      "addr:city": "Zürich",
      "addr:country": "CH",
      "addr:housenumber": "155",
      "addr:postcode": "8005",
      "addr:street": "Sihlquai",
      "amenity": "fuel",
      "brand": "Migrol",
      "fuel:adblue": "yes",
      "fuel:diesel": "yes",
      "fuel:octane_95": "yes",
      "fuel:octane_98": "yes",
      "name": "Migrol Service Sihlquai",
      "operator": "Migrol",
      "payment:american_express": "yes",
      "payment:maestro": "yes",
      "payment:mastercard": "yes",
      "payment:notes": "yes",
      "payment:visa": "yes",
      "shop": "convenience",
      "website": "https://www.migrol.ch"
    }
  },
  {
    "type": "node",
    "id": 283201896,
    "lat": 47.2018784,
    "lon": 8.7901650,
    "tags": {
      "addr:city": "Pfäffikon (SZ)",
      "addr:housenumber": "136",
      "addr:postcode": "8808",
      "addr:street": "Churerstrasse",
      "amenity": "fuel",
      "name": "BP"
    }
  },
  {
    "type": "node",
    "id": 283213549,
    "lat": 46.9368196,
    "lon": 7.4324240,
    "tags": {
      "amenity": "fuel",
      "name": "Agip",
      "operator": "Agip"
    }
  },
  {
    "type": "node",
    "id": 284931676,
    "lat": 46.2304848,
    "lon": 6.0849653,
    "tags": {
      "addr:city": "Meyrin",
      "addr:housenumber": "45",
      "addr:street": "Avenue de Mategnin",
      "amenity": "fuel",
      "operator": "Shell"
    }
  },
  {
    "type": "node",
    "id": 286048215,
    "lat": 47.1937435,
    "lon": 7.4054046,
    "tags": {
      "amenity": "fuel"
    }
  },
  {
    "type": "node",
    "id": 286056220,
    "lat": 47.3292879,
    "lon": 8.2023524,
    "tags": {
      "amenity": "fuel",
      "fuel:diesel": "yes",
      "fuel:octane_95": "yes",
      "fuel:octane_98": "yes",
      "name": "Feldgarage",
      "operator": "AGIP",
      "shop": "car_repair",
      "wheelchair": "yes"
    }
  },
  {
    "type": "node",
    "id": 286059665,
    "lat": 47.1857372,
    "lon": 8.4543740,
    "tags": {
      "amenity": "fuel",
      "brand": "BP",
      "operator": "Imholz Autohaus"
    }
  },
  {
    "type": "node",
    "id": 286059992,
    "lat": 47.7480618,
    "lon": 8.4579156,
    "tags": {
      "amenity": "fuel"
    }
  },
  {
    "type": "node",
    "id": 286059993,
    "lat": 47.7474281,
    "lon": 8.4594036,
    "tags": {
      "amenity": "fuel"
    }
  },
  {
    "type": "node",
    "id": 286478967,
    "lat": 46.7926449,
    "lon": 7.5184156,
    "tags": {
      "amenity": "fuel"
    }
  },
  {
    "type": "node",
    "id": 286596987,
    "lat": 46.6903430,
    "lon": 7.8731503,
    "tags": {
      "amenity": "fuel",
      "name": "Ri"
    }
  },
  {
    "type": "node",
    "id": 286770232,
    "lat": 46.7521030,
    "lon": 8.0483903,
    "tags": {
      "amenity": "fuel",
      "name": "Socar",
      "opening_hours": "Mo-Sa 07:15-21:00, Su,PH 08:00-21:00",
      "operator": "Socar"
    }
  },
  {
    "type": "node",
    "id": 286782225,
    "lat": 47.7235876,
    "lon": 8.6397406,
    "tags": {
      "amenity": "fuel",
      "name": "Agip"
    }
  },
  {
    "type": "node",
    "id": 286879558,
    "lat": 46.8866278,
    "lon": 7.3890744,
    "tags": {
      "amenity": "fuel",
      "brand": "Agrola",
      "operator": "Landi"
    }
  },
  {
    "type": "node",
    "id": 286879677,
    "lat": 46.9250194,
    "lon": 7.4169070,
    "tags": {
      "addr:city": "Köniz",
      "addr:country": "CH",
      "addr:housenumber": "241",
      "addr:postcode": "3098",
      "addr:street": "Schwarzenburgstrasse",
      "amenity": "fuel",
      "brand": "Ruedi Rüssel",
      "shop": "yes"
    }
  },
  {
    "type": "node",
    "id": 286904870,
    "lat": 46.3493770,
    "lon": 7.1574198,
    "tags": {
      "amenity": "fuel",
      "name": "Agip",
      "operator": "Agip"
    }
  },
  {
    "type": "node",
    "id": 287320953,
    "lat": 47.1023815,
    "lon": 6.8333999,
    "tags": {
      "amenity": "fuel",
      "name": "BP Shop",
      "operator": "BP"
    }
  },
  {
    "type": "node",
    "id": 287527223,
    "lat": 47.2053265,
    "lon": 7.5502380,
    "tags": {
      "amenity": "fuel",
      "operator": "Shell",
      "shop": "kiosk"
    }
  },
  {
    "type": "node",
    "id": 287630914,
    "lat": 47.1668796,
    "lon": 9.4664798,
    "tags": {
      "amenity": "fuel",
      "name": "Coop",
      "opening_hours": "Mo-Sa 05:30-22:00; Su 07:00-21:00",
      "wheelchair": "yes"
    }
  },
  {
    "type": "node",
    "id": 288557316,
    "lat": 47.4898013,
    "lon": 7.5896372,
    "tags": {
      "amenity": "fuel",
      "operator": "Avia"
    }
  },
  {
    "type": "node",
    "id": 288740214,
    "lat": 46.7680292,
    "lon": 7.3523004,
    "tags": {
      "amenity": "fuel"
    }
  },
  {
    "type": "node",
    "id": 289150440,
    "lat": 47.4801381,
    "lon": 8.1569652,
    "tags": {
      "amenity": "fuel"
    }
  },
  {
    "type": "node",
    "id": 290293408,
    "lat": 46.7506241,
    "lon": 7.1690192,
    "tags": {
      "amenity": "fuel",
      "created_by": "JOSM",
      "operator": "Tamoil",
      "source": "photograph"
    }
  },
  {
    "type": "node",
    "id": 290798270,
    "lat": 46.9731324,
    "lon": 7.4381280,
    "tags": {
      "amenity": "fuel",
      "brand": "AVIA"
    }
  },
  {
    "type": "node",
    "id": 291415329,
    "lat": 47.6550133,
    "lon": 9.1650211,
    "tags": {
      "amenity": "fuel",
      "brand": "Socar",
      "fuel:diesel": "yes",
      "fuel:octane_95": "yes",
      "fuel:octane_98": "yes",
      "name": "Socar",
      "opening_hours": "Mo-Sa 06:00-22:00; Su 08:00-22:00",
      "phone": "+41 79 622 99 40",
      "wheelchair": "yes"
    }
  },
  {
    "type": "node",
    "id": 291637079,
    "lat": 47.2285007,
    "lon": 8.3900965,
    "tags": {
      "amenity": "fuel",
      "brand": "AVIA"
    }
  },
  {
    "type": "node",
    "id": 291769933,
    "lat": 46.7708037,
    "lon": 7.1634208,
    "tags": {
      "amenity": "fuel",
      "contact:email": "dutennis@bluewin.ch",
      "contact:fax": "+4126 436 15 46",
      "contact:phone": "+4126 436 15 60",
      "contact:website": "http://www.garage-du-tennis.ch/",
      "fuel:diesel": "yes",
      "fuel:octane_95": "yes",
      "name": "Garage du Tennis Marly SA"
    }
  },
  {
    "type": "node",
    "id": 292182867,
    "lat": 46.5271442,
    "lon": 6.6032827,
    "tags": {
      "amenity": "fuel",
      "created_by": "Potlatch 0.10b",
      "operator": "Shell"
    }
  },
  {
    "type": "node",
    "id": 292288374,
    "lat": 47.3823839,
    "lon": 8.6714384,
    "tags": {
      "addr:housenumber": "11",
      "addr:street": "Grabenwisstrasse",
      "amenity": "fuel",
      "name": "coop",
      "name:de": "Coop Pronto",
      "shop": "convenience",
      "wheelchair": "yes"
    }
  },
  {
    "type": "node",
    "id": 292317978,
    "lat": 47.5705806,
    "lon": 9.1000336,
    "tags": {
      "amenity": "fuel",
      "brand": "BP",
      "fuel:diesel": "yes",
      "fuel:octane_95": "yes",
      "fuel:octane_98": "yes",
      "operator": "Guido Scherrer",
      "wheelchair": "no"
    }
  },
  {
    "type": "node",
    "id": 292331528,
    "lat": 47.5600805,
    "lon": 9.1320734,
    "tags": {
      "amenity": "fuel",
      "name": "Agrola"
    }
  },
  {
    "type": "node",
    "id": 292341684,
    "lat": 47.5501032,
    "lon": 9.1527304,
    "tags": {
      "amenity": "fuel",
      "brand": "Avia"
    }
  },
  {
    "type": "node",
    "id": 292356897,
    "lat": 47.5636919,
    "lon": 9.1084393,
    "tags": {
      "amenity": "fuel",
      "operator": "Garage Fischbach GmbH"
    }
  },
  {
    "type": "node",
    "id": 292362274,
    "lat": 46.7558732,
    "lon": 7.1478931,
    "tags": {
      "amenity": "fuel"
    }
  },
  {
    "type": "node",
    "id": 292507777,
    "lat": 46.7802595,
    "lon": 6.6533462,
    "tags": {
      "amenity": "fuel",
      "name": "Garage Bel-Air",
      "operator": "Shell"
    }
  },
  {
    "type": "node",
    "id": 292552310,
    "lat": 47.5519864,
    "lon": 7.8034480,
    "tags": {
      "amenity": "fuel",
      "name": "Coop Pronto",
      "operator": "coop",
      "shop": "convenience"
    }
  },
  {
    "type": "node",
    "id": 292626676,
    "lat": 46.4814865,
    "lon": 6.7746074,
    "tags": {
      "amenity": "fuel",
      "operator": "BP"
    }
  },
  {
    "type": "node",
    "id": 292626689,
    "lat": 46.4825065,
    "lon": 6.7758542,
    "tags": {
      "amenity": "fuel"
    }
  },
  {
    "type": "node",
    "id": 292626690,
    "lat": 46.4831227,
    "lon": 6.7753449,
    "tags": {
      "amenity": "fuel"
    }
  },
  {
    "type": "node",
    "id": 292665153,
    "lat": 47.0420458,
    "lon": 7.2742123,
    "tags": {
      "amenity": "fuel",
      "created_by": "Potlatch 0.10f",
      "note": "Esso"
    }
  },
  {
    "type": "node",
    "id": 293011493,
    "lat": 47.5601728,
    "lon": 8.4925388,
    "tags": {
      "amenity": "fuel",
      "brand": "Shell",
      "name": "Shell",
      "name:de": "Shell",
      "operator": "Shell"
    }
  },
  {
    "type": "node",
    "id": 293030011,
    "lat": 47.3450854,
    "lon": 8.7019951,
    "tags": {
      "amenity": "fuel",
      "fuel:diesel": "yes",
      "fuel:octane_95": "yes",
      "fuel:octane_98": "yes",
      "name": "Lenzlinger Söhne AG"
    }
  },
  {
    "type": "node",
    "id": 293254091,
    "lat": 46.8184695,
    "lon": 8.3979203,
    "tags": {
      "addr:city": "Engelberg",
      "addr:postcode": "6390",
      "addr:street": "Engelbergerstrasse",
      "amenity": "fuel",
      "fuel:diesel": "yes",
      "fuel:octane_95": "yes",
      "fuel:octane_98": "yes",
      "maxheight": "3",
      "name": "Ruedi Rüssel"
    }
  },
  {
    "type": "node",
    "id": 293585451,
    "lat": 47.4726540,
    "lon": 7.7554919,
    "tags": {
      "amenity": "fuel",
      "created_by": "Merkaartor 0.12",
      "name": "Coop"
    }
  },
  {
    "type": "node",
    "id": 293609533,
    "lat": 47.5283929,
    "lon": 8.4667206,
    "tags": {
      "amenity": "fuel",
      "created_by": "Potlatch 0.10b"
    }
  },
  {
    "type": "node",
    "id": 294055540,
    "lat": 47.1102168,
    "lon": 8.3211384,
    "tags": {
      "amenity": "fuel",
      "name": "Migrol"
    }
  },
  {
    "type": "node",
    "id": 294055589,
    "lat": 47.1216181,
    "lon": 8.3416496,
    "tags": {
      "amenity": "fuel",
      "name": "Avia",
      "operator": "Avia"
    }
  },
  {
    "type": "node",
    "id": 294137859,
    "lat": 46.7923159,
    "lon": 6.6276571,
    "tags": {
      "amenity": "fuel",
      "name": "Garage des Lovats",
      "operator": "AGIP"
    }
  },
  {
    "type": "node",
    "id": 294260600,
    "lat": 46.6322102,
    "lon": 8.5928660,
    "tags": {
      "amenity": "fuel",
      "name": "Garage Aurora Andermatt",
      "opening_hours": "until Apr 30th 2014"
    }
  },
  {
    "type": "node",
    "id": 295747025,
    "lat": 47.1196050,
    "lon": 7.2429595,
    "tags": {
      "amenity": "fuel",
      "fuel:diesel": "yes",
      "fuel:octane_95": "yes",
      "fuel:octane_98": "yes",
      "name": "Socar",
      "operator": "Socar",
      "shop": "yes"
    }
  },
  {
    "type": "node",
    "id": 296253069,
    "lat": 47.0893332,
    "lon": 6.8075691,
    "tags": {
      "amenity": "fuel",
      "name": "Pronto",
      "operator": "Coop"
    }
  },
  {
    "type": "node",
    "id": 296927806,
    "lat": 47.4770908,
    "lon": 9.4620009,
    "tags": {
      "amenity": "fuel",
      "brand": "bp",
      "shop": "no"
    }
  },
  {
    "type": "node",
    "id": 296941470,
    "lat": 47.2140841,
    "lon": 8.7004828,
    "tags": {
      "amenity": "fuel",
      "brand": "Avia",
      "name": "Avia",
      "operator": "Avia Vereinigung"
    }
  },
  {
    "type": "node",
    "id": 296990388,
    "lat": 47.4275979,
    "lon": 7.7714448,
    "tags": {
      "amenity": "fuel",
      "car_wash": "yes",
      "name": "MIGROL"
    }
  },
  {
    "type": "node",
    "id": 297027382,
    "lat": 46.0859384,
    "lon": 7.5091153,
    "tags": {
      "amenity": "fuel"
    }
  },
  {
    "type": "node",
    "id": 297070232,
    "lat": 46.7848989,
    "lon": 6.6332171,
    "tags": {
      "amenity": "fuel",
      "name": "Garage Bouby-Rolls",
      "operator": "Esso",
      "wheelchair": "no"
    }
  },
  {
    "type": "node",
    "id": 297302039,
    "lat": 47.4070106,
    "lon": 8.7269393,
    "tags": {
      "amenity": "fuel",
      "brand": "Shell",
      "fuel:diesel": "yes",
      "fuel:octane_91": "yes",
      "fuel:octane_95": "yes",
      "name": "Shell Illnau"
    }
  },
  {
    "type": "node",
    "id": 297555014,
    "lat": 46.2126907,
    "lon": 9.0395354,
    "tags": {
      "amenity": "fuel",
      "name": "Shell",
      "operator": "shell"
    }
  },
  {
    "type": "node",
    "id": 297938369,
    "lat": 46.4222373,
    "lon": 6.2610444,
    "tags": {
      "amenity": "fuel",
      "operator": "Shell"
    }
  },
  {
    "type": "node",
    "id": 297993545,
    "lat": 47.2299512,
    "lon": 8.6672125,
    "tags": {
      "amenity": "fuel",
      "created_by": "Potlatch 0.10b"
    }
  },
  {
    "type": "node",
    "id": 298042177,
    "lat": 47.5615572,
    "lon": 7.5680655,
    "tags": {
      "amenity": "fuel",
      "operator": "Avia"
    }
  },
  {
    "type": "node",
    "id": 298154525,
    "lat": 46.2269622,
    "lon": 7.3859113,
    "tags": {
      "amenity": "fuel",
      "operator": "Tamoil"
    }
  },
  {
    "type": "node",
    "id": 298681614,
    "lat": 47.4941013,
    "lon": 9.4684189,
    "tags": {
      "amenity": "fuel",
      "name": "Garage Zender",
      "operator": "AVIA",
      "phone": "+4171 841 33 67",
      "seamark:small_craft_facility:category": "fuel_station",
      "seamark:type": "small_craft_facility",
      "website": "http://www.zehendergarage.ch"
    }
  },
  {
    "type": "node",
    "id": 298715804,
    "lat": 47.4800585,
    "lon": 9.0297703,
    "tags": {
      "addr:city": "Bronschhofen",
      "addr:postcode": "9552",
      "amenity": "fuel",
      "brand": "BEBECO",
      "fuel:diesel": "yes",
      "fuel:octane_95": "yes",
      "name": "BEBECO",
      "opening_hours": "24/7",
      "operator": "Schweizer Armee",
      "payment:bebeco": "yes",
      "url": "http://www.lba.admin.ch/internet/lba/de/home/dienstleistungen/bebeco0/kanton_st_gallen/9552_bronschhofen.html"
    }
  },
  {
    "type": "node",
    "id": 298856019,
    "lat": 47.3297486,
    "lon": 8.9189300,
    "tags": {
      "addr:housenumber": "438",
      "addr:street": "Tösstalstrasse",
      "amenity": "fuel",
      "fuel:GTL_diesel": "no",
      "fuel:HGV_diesel": "no",
      "fuel:biodiesel": "no",
      "fuel:biogas": "no",
      "fuel:cng": "no",
      "fuel:diesel": "yes",
      "fuel:e10": "no",
      "fuel:e85": "no",
      "fuel:electricity": "no",
      "fuel:lpg": "no",
      "fuel:octane_100": "no",
      "fuel:octane_91": "no",
      "fuel:octane_95": "yes",
      "fuel:octane_98": "yes",
      "operator": "sikkens"
    }
  },
  {
    "type": "node",
    "id": 298873230,
    "lat": 46.2339625,
    "lon": 6.0546768,
    "tags": {
      "addr:housenumber": "372",
      "addr:street": "Route de Meyrin",
      "amenity": "fuel",
      "name": "Socar Meyrin",
      "operator": "Socar",
      "phone": "+41 22 782 64 23"
    }
  },
  {
    "type": "node",
    "id": 299083515,
    "lat": 47.3881046,
    "lon": 8.7529751,
    "tags": {
      "amenity": "fuel",
      "name": "Agrola",
      "operator": "LANDI Zola AG"
    }
  },
  {
    "type": "node",
    "id": 299207655,
    "lat": 47.4968466,
    "lon": 9.4576620,
    "tags": {
      "amenity": "fuel"
    }
  },
  {
    "type": "node",
    "id": 299311915,
    "lat": 46.6246348,
    "lon": 8.0304265,
    "tags": {
      "amenity": "fuel",
      "name": "Öltrans",
      "opening_hours": "24/7",
      "source": "survey"
    }
  },
  {
    "type": "node",
    "id": 299363864,
    "lat": 47.1790298,
    "lon": 8.4317033,
    "tags": {
      "amenity": "fuel",
      "brand": "Agrola",
      "fuel:diesel": "yes",
      "fuel:octane_95": "yes",
      "fuel:octane_98": "yes",
      "name": "Agrola",
      "source": "survey"
    }
  },
  {
    "type": "node",
    "id": 299364634,
    "lat": 47.1795921,
    "lon": 8.4338162,
    "tags": {
      "amenity": "fuel",
      "brand": "Shell",
      "fuel:diesel": "yes",
      "fuel:octane_95": "yes",
      "fuel:octane_98": "yes",
      "name": "AutoSuter",
      "operator": "Shell",
      "shop": "kiosk",
      "source": "survey"
    }
  },
  {
    "type": "node",
    "id": 299752761,
    "lat": 47.3803229,
    "lon": 8.5463543,
    "tags": {
      "amenity": "fuel",
      "name": "Scall"
    }
  },
  {
    "type": "node",
    "id": 299813447,
    "lat": 47.2867134,
    "lon": 8.5433655,
    "tags": {
      "amenity": "fuel",
      "brand": "Independent",
      "fuel:diesel": "no",
      "name": "Vögtlin-Meyer",
      "opening_hours": "24/7",
      "shop": "no"
    }
  },
  {
    "type": "node",
    "id": 299813627,
    "lat": 46.9685847,
    "lon": 6.8482514,
    "tags": {
      "amenity": "fuel",
      "name": "Miniprix"
    }
  },
  {
    "type": "node",
    "id": 300418712,
    "lat": 47.3937050,
    "lon": 8.5059844,
    "tags": {
      "amenity": "fuel",
      "brand": "Avia",
      "name": "Avia Hardturmstrasse",
      "operator": "A.H. Meyer & Cie AG"
    }
  },
  {
    "type": "node",
    "id": 300514678,
    "lat": 47.7921144,
    "lon": 8.6127878,
    "tags": {
      "amenity": "fuel",
      "name": "Esso Tanner-Risch",
      "operator": "Esso"
    }
  },
  {
    "type": "node",
    "id": 300514679,
    "lat": 47.7924569,
    "lon": 8.6121498,
    "tags": {
      "amenity": "fuel",
      "name": "Migrol Heinz Tanner",
      "operator": "Migrol"
    }
  },
  {
    "type": "node",
    "id": 301208147,
    "lat": 47.3728411,
    "lon": 8.5211422,
    "tags": {
      "addr:city": "Zürich",
      "addr:country": "CH",
      "addr:housenumber": "100",
      "addr:postcode": "8003",
      "addr:street": "Seebahnstrasse",
      "amenity": "fuel",
      "brand": "BP",
      "fuel:1_50": "yes",
      "fuel:diesel": "yes",
      "fuel:octane_95": "yes",
      "fuel:octane_98": "yes",
      "name": "BP Service Wiedikon",
      "opening_hours": "24/7",
      "shop": "convenience",
      "wheelchair": "yes"
    }
  },
  {
    "type": "node",
    "id": 301407672,
    "lat": 47.4865145,
    "lon": 8.2949688,
    "tags": {
      "amenity": "fuel",
      "name": "Argovia Tankstelle"
    }
  },
  {
    "type": "node",
    "id": 301467582,
    "lat": 47.1707634,
    "lon": 8.7142820,
    "tags": {
      "amenity": "fuel"
    }
  },
  {
    "type": "node",
    "id": 303074394,
    "lat": 47.4780108,
    "lon": 8.8983927,
    "tags": {
      "amenity": "fuel",
      "name": "Agrola",
      "opening_hours": "24/7",
      "wheelchair": "limited"
    }
  },
  {
    "type": "node",
    "id": 303314859,
    "lat": 47.3629959,
    "lon": 9.0734928,
    "tags": {
      "amenity": "fuel",
      "fuel:diesel": "yes",
      "fuel:octane_95": "yes",
      "fuel:octane_98": "yes",
      "name": "BP",
      "opening_hours": "24/7"
    }
  },
  {
    "type": "node",
    "id": 303699177,
    "lat": 47.4518342,
    "lon": 8.7012565,
    "tags": {
      "amenity": "fuel",
      "operator": "BP"
    }
  },
  {
    "type": "node",
    "id": 303844420,
    "lat": 46.9713263,
    "lon": 7.3553711,
    "tags": {
      "amenity": "fuel",
      "brand": "Agrola",
      "name": "Landi"
    }
  },
  {
    "type": "node",
    "id": 303903676,
    "lat": 46.5249633,
    "lon": 6.5369317,
    "tags": {
      "amenity": "fuel",
      "created_by": "Potlatch 0.10d"
    }
  },
  {
    "type": "node",
    "id": 304014558,
    "lat": 46.0872339,
    "lon": 7.2068309,
    "tags": {
      "addr:city": "Cotterg",
      "amenity": "fuel",
      "name": "St Christophe",
      "operator": "Tamoil"
    }
  },
  {
    "type": "node",
    "id": 304854084,
    "lat": 46.8816850,
    "lon": 8.6419316,
    "tags": {
      "amenity": "fuel",
      "name": "Postgarage",
      "wheelchair": "yes"
    }
  },
  {
    "type": "node",
    "id": 304917714,
    "lat": 47.4541695,
    "lon": 8.4383170,
    "tags": {
      "amenity": "fuel",
      "operator": "Socar"
    }
  },
  {
    "type": "node",
    "id": 304992273,
    "lat": 47.4585509,
    "lon": 8.4068901,
    "tags": {
      "addr:housenumber": "1",
      "addr:street": "Harbernstrasse",
      "amenity": "fuel",
      "name": "Avia",
      "operator": "Avia"
    }
  },
  {
    "type": "node",
    "id": 304993060,
    "lat": 47.4460160,
    "lon": 8.4632213,
    "tags": {
      "amenity": "fuel",
      "created_by": "Potlatch 0.10f",
      "operator": "Agrola"
    }
  },
  {
    "type": "node",
    "id": 305469317,
    "lat": 47.0012366,
    "lon": 7.4619783,
    "tags": {
      "amenity": "fuel",
      "fuel:diesel": "yes",
      "fuel:octane_95": "yes",
      "fuel:octane_98": "yes",
      "name": "Avia"
    }
  },
  {
    "type": "node",
    "id": 305469322,
    "lat": 47.0043064,
    "lon": 7.4629966,
    "tags": {
      "amenity": "fuel",
      "brand": "Socar",
      "fuel:diesel": "yes",
      "fuel:octane_95": "yes",
      "fuel:octane_98": "yes"
    }
  },
  {
    "type": "node",
    "id": 305701426,
    "lat": 47.4448544,
    "lon": 8.6232305,
    "tags": {
      "amenity": "fuel",
      "created_by": "Potlatch 0.10e",
      "name": "AVIA"
    }
  },
  {
    "type": "node",
    "id": 305707837,
    "lat": 47.4445742,
    "lon": 8.6251146,
    "tags": {
      "amenity": "fuel",
      "name": "Socar"
    }
  },
  {
    "type": "node",
    "id": 305765115,
    "lat": 47.0638829,
    "lon": 7.3338804,
    "tags": {
      "amenity": "fuel",
      "brand": "Agrola"
    }
  },
  {
    "type": "node",
    "id": 305765123,
    "lat": 47.0679047,
    "lon": 7.3157883,
    "tags": {
      "amenity": "fuel",
      "brand": "bp"
    }
  },
  {
    "type": "node",
    "id": 306231847,
    "lat": 46.7038000,
    "lon": 6.5687812,
    "tags": {
      "amenity": "fuel",
      "name": "Simond"
    }
  },
  {
    "type": "node",
    "id": 306498031,
    "lat": 46.5825347,
    "lon": 6.6011678,
    "tags": {
      "amenity": "fuel",
      "operator": "Shell",
      "wheelchair": "limited"
    }
  },
  {
    "type": "node",
    "id": 306667904,
    "lat": 46.8962748,
    "lon": 8.6265048,
    "tags": {
      "amenity": "fuel",
      "brand": "Shell"
    }
  },
  {
    "type": "node",
    "id": 307028624,
    "lat": 47.2111081,
    "lon": 7.5442211,
    "tags": {
      "amenity": "fuel",
      "brand": "BP",
      "compressed_air": "yes",
      "compressed_air:fee": "no",
      "compressed_air:manometer": "yes",
      "operator": "BP"
    }
  },
  {
    "type": "node",
    "id": 307121153,
    "lat": 47.4185086,
    "lon": 8.6847709,
    "tags": {
      "amenity": "fuel",
      "name": "AVIA"
    }
  },
  {
    "type": "node",
    "id": 307121156,
    "lat": 47.4220428,
    "lon": 8.6848857,
    "tags": {
      "amenity": "fuel",
      "brand": "Migrol",
      "fuel:diesel": "yes",
      "fuel:octane_91": "yes",
      "fuel:octane_95": "yes",
      "name": "Garage Kempf"
    }
  },
  {
    "type": "node",
    "id": 307363530,
    "lat": 47.4620264,
    "lon": 8.3353917,
    "tags": {
      "amenity": "fuel",
      "name": "Coop",
      "operator": "Coop"
    }
  },
  {
    "type": "node",
    "id": 307661791,
    "lat": 47.2370963,
    "lon": 8.6374727,
    "tags": {
      "amenity": "fuel",
      "brand": "Independent",
      "name": "Ruedi Rüssel"
    }
  },
  {
    "type": "node",
    "id": 307662123,
    "lat": 47.2375535,
    "lon": 8.6452619,
    "tags": {
      "amenity": "fuel",
      "wheelchair": "yes"
    }
  },
  {
    "type": "node",
    "id": 307669315,
    "lat": 47.2191945,
    "lon": 8.6696480,
    "tags": {
      "amenity": "fuel"
    }
  },
  {
    "type": "node",
    "id": 307695032,
    "lat": 47.2237124,
    "lon": 7.7784468,
    "tags": {
      "amenity": "fuel",
      "name": "AVIA",
      "operator": "AVIA"
    }
  },
  {
    "type": "node",
    "id": 307698374,
    "lat": 47.2348140,
    "lon": 9.0216688,
    "tags": {
      "amenity": "fuel",
      "name": "BP",
      "operator": "BP",
      "wheelchair": "no"
    }
  },
  {
    "type": "node",
    "id": 307776683,
    "lat": 46.6908673,
    "lon": 6.7030092,
    "tags": {
      "amenity": "fuel"
    }
  },
  {
    "type": "node",
    "id": 307821699,
    "lat": 46.8623721,
    "lon": 7.4607301,
    "tags": {
      "amenity": "fuel",
      "branch": "Ruedi Rüssel"
    }
  },
  {
    "type": "node",
    "id": 308075661,
    "lat": 46.9434945,
    "lon": 7.3711117,
    "tags": {
      "amenity": "fuel",
      "brand": "Migrolino",
      "fuel:cng": "yes",
      "fuel:diesel": "yes",
      "fuel:octane_95": "yes",
      "name": "Migrol"
    }
  },
  {
    "type": "node",
    "id": 308077581,
    "lat": 46.9068342,
    "lon": 7.2356666,
    "tags": {
      "amenity": "fuel"
    }
  },
  {
    "type": "node",
    "id": 308632636,
    "lat": 47.0061393,
    "lon": 7.0610583,
    "tags": {
      "amenity": "fuel",
      "ethanol": "no",
      "fuel:biodiesel": "no",
      "fuel:diesel": "no",
      "fuel:lpg": "yes",
      "fuel:octane_100": "no",
      "fuel:octane_95": "yes",
      "fuel:octane_98": "no",
      "name": "Rasthof Platanenhof"
    }
  },
  {
    "type": "node",
    "id": 309112387,
    "lat": 47.4344986,
    "lon": 8.7635897,
    "tags": {
      "amenity": "fuel",
      "name": "AVIA"
    }
  },
  {
    "type": "node",
    "id": 309425295,
    "lat": 47.3277560,
    "lon": 8.7824754,
    "tags": {
      "amenity": "fuel",
      "fuel:biogas": "yes",
      "fuel:cng": "yes",
      "fuel:diesel": "yes",
      "fuel:octane_95": "yes",
      "name": "bp",
      "opening_hours": "Mo-Su,PH 07:00-22:00",
      "wheelchair": "yes"
    }
  },
  {
    "type": "node",
    "id": 309431866,
    "lat": 47.0905334,
    "lon": 6.8088216,
    "tags": {
      "amenity": "fuel",
      "name": "Migrol",
      "operator": "Migrol"
    }
  },
  {
    "type": "node",
    "id": 309431882,
    "lat": 47.0931939,
    "lon": 6.8150359,
    "tags": {
      "amenity": "fuel",
      "name": "Entilles",
      "operator": "HK"
    }
  },
  {
    "type": "node",
    "id": 309433866,
    "lat": 47.0971909,
    "lon": 6.8209067,
    "tags": {
      "amenity": "fuel",
      "name": "Michel Grandjean",
      "operator": "Tamoli"
    }
  },
  {
    "type": "node",
    "id": 309765158,
    "lat": 47.0636767,
    "lon": 6.7607015,
    "tags": {
      "amenity": "fuel",
      "name": "On the road",
      "operator": "Esso"
    }
  },
  {
    "type": "node",
    "id": 309956444,
    "lat": 46.6735462,
    "lon": 6.5694970,
    "tags": {
      "amenity": "fuel",
      "operator": "Shell"
    }
  },
  {
    "type": "node",
    "id": 309956446,
    "lat": 46.6737199,
    "lon": 6.5703936,
    "tags": {
      "amenity": "fuel",
      "operator": "Shell"
    }
  },
  {
    "type": "node",
    "id": 309986668,
    "lat": 46.0538103,
    "lon": 8.9729480,
    "tags": {
      "amenity": "fuel",
      "operator": "Tamoil"
    }
  },
  {
    "type": "node",
    "id": 310091786,
    "lat": 47.2662666,
    "lon": 7.3583741,
    "tags": {
      "amenity": "fuel",
      "created_by": "Potlatch 0.10f",
      "ele": "572"
    }
  },
  {
    "type": "node",
    "id": 310205995,
    "lat": 47.3968963,
    "lon": 8.4404596,
    "tags": {
      "amenity": "fuel",
      "name": "BP"
    }
  },
  {
    "type": "node",
    "id": 310281263,
    "lat": 46.5420715,
    "lon": 6.6598416,
    "tags": {
      "amenity": "fuel",
      "name": "BP",
      "operator": "BP"
    }
  },
  {
    "type": "node",
    "id": 310299936,
    "lat": 47.2975010,
    "lon": 7.9360771,
    "tags": {
      "amenity": "fuel",
      "name": "Esso",
      "operator": "Esso"
    }
  },
  {
    "type": "node",
    "id": 310314796,
    "lat": 47.4294844,
    "lon": 8.6871667,
    "tags": {
      "amenity": "fuel",
      "name": "SOCAR"
    }
  },
  {
    "type": "node",
    "id": 310390136,
    "lat": 46.0095075,
    "lon": 8.9639654,
    "tags": {
      "amenity": "fuel",
      "created_by": "xybot",
      "name": "Piccadilly",
      "wheelchair": "yes"
    }
  },
  {
    "type": "node",
    "id": 310567715,
    "lat": 46.3199827,
    "lon": 10.0592318,
    "tags": {
      "amenity": "fuel",
      "created_by": "Potlatch 0.10f",
      "name": "Migrol"
    }
  },
  {
    "type": "node",
    "id": 310668275,
    "lat": 47.1057512,
    "lon": 8.3794619,
    "tags": {
      "amenity": "fuel",
      "operator": "Agrola"
    }
  },
  {
    "type": "node",
    "id": 310668277,
    "lat": 47.1167598,
    "lon": 8.3914953,
    "tags": {
      "addr:city": "Root",
      "addr:country": "CH",
      "addr:housenumber": "12",
      "addr:postcode": "6037",
      "addr:street": "Bahnhofstrasse",
      "amenity": "fuel",
      "name": "Centrum Garage Notter",
      "operator": "Avia"
    }
  },
  {
    "type": "node",
    "id": 310875963,
    "lat": 47.2303216,
    "lon": 8.8478607,
    "tags": {
      "amenity": "fuel",
      "name": "Avia",
      "operator": "Avia"
    }
  },
  {
    "type": "node",
    "id": 311097320,
    "lat": 46.8897890,
    "lon": 7.2243433,
    "tags": {
      "amenity": "fuel",
      "name": "Avia",
      "operator": "Avia"
    }
  },
  {
    "type": "node",
    "id": 311185159,
    "lat": 47.4403024,
    "lon": 9.4101696,
    "tags": {
      "amenity": "fuel",
      "fuel:biogas": "yes",
      "fuel:cng": "yes",
      "fuel:diesel": "yes",
      "fuel:octane_95": "yes",
      "fuel:octane_98": "yes",
      "name": "BP",
      "operator": "BP"
    }
  },
  {
    "type": "node",
    "id": 311252839,
    "lat": 46.4237682,
    "lon": 6.2544241,
    "tags": {
      "amenity": "fuel",
      "name": "Coop",
      "payment:twint": "yes",
      "wheelchair": "yes"
    }
  },
  {
    "type": "node",
    "id": 311252842,
    "lat": 46.4253133,
    "lon": 6.2542395,
    "tags": {
      "amenity": "fuel"
    }
  },
  {
    "type": "node",
    "id": 311319045,
    "lat": 47.2296006,
    "lon": 8.4785667,
    "tags": {
      "amenity": "fuel",
      "operator": "Migrol"
    }
  },
  {
    "type": "node",
    "id": 311976893,
    "lat": 47.4010238,
    "lon": 8.4915916,
    "tags": {
      "addr:city": "Zürich",
      "addr:country": "CH",
      "addr:housenumber": "38",
      "addr:postcode": "8049",
      "addr:street": "Winzerstrasse",
      "amenity": "fuel",
      "automated": "yes",
      "brand": "Shell",
      "capacity": "4",
      "fuel:diesel": "yes",
      "fuel:octane_95": "yes",
      "name": "Shell Winzerstrasse",
      "opening_hours": "24/7",
      "self_service": "yes",
      "shop": "no"
    }
  },
  {
    "type": "node",
    "id": 312012092,
    "lat": 47.4141963,
    "lon": 8.5182140,
    "tags": {
      "addr:city": "Zürich",
      "addr:country": "CH",
      "addr:housenumber": "387",
      "addr:postcode": "8046",
      "addr:street": "Wehntalerstrasse",
      "amenity": "fuel",
      "brand": "Migrol",
      "fuel:diesel": "yes",
      "fuel:octane_95": "yes",
      "fuel:octane_98": "yes",
      "name": "Migrol Service",
      "operator": "Kaspar Preisig",
      "payment:american_express": "yes",
      "payment:maestro": "yes",
      "payment:mastercard": "yes",
      "payment:notes": "yes",
      "payment:visa": "yes",
      "shop": "convenience"
    }
  },
  {
    "type": "node",
    "id": 312365830,
    "lat": 46.1281589,
    "lon": 7.0600696,
    "tags": {
      "amenity": "fuel",
      "name": "Shell + BP",
      "operator": "Shell"
    }
  },
  {
    "type": "node",
    "id": 312468153,
    "lat": 47.1247819,
    "lon": 7.2596305,
    "tags": {
      "amenity": "fuel",
      "fuel:diesel": "yes",
      "fuel:octane_95": "yes",
      "fuel:octane_98": "yes",
      "operator": "Tamoil"
    }
  },
  {
    "type": "node",
    "id": 312630282,
    "lat": 47.1296307,
    "lon": 7.2547306,
    "tags": {
      "amenity": "fuel",
      "fuel:diesel": "yes",
      "fuel:octane_95": "yes",
      "name": "Marché Brügg"
    }
  },
  {
    "type": "node",
    "id": 313192016,
    "lat": 47.4306470,
    "lon": 8.9566147,
    "tags": {
      "amenity": "fuel",
      "name": "Landi",
      "operator": "Landi"
    }
  },
  {
    "type": "node",
    "id": 313268393,
    "lat": 47.3803243,
    "lon": 8.4940369,
    "tags": {
      "addr:city": "Zürich",
      "addr:country": "CH",
      "addr:housenumber": "12",
      "addr:postcode": "8047",
      "addr:street": "Rautistrasse",
      "amenity": "fuel",
      "brand": "Shell",
      "fuel:diesel": "yes",
      "fuel:octane_100": "yes",
      "fuel:octane_95": "yes",
      "name": "Shell Rautistrasse",
      "shop": "yes"
    }
  },
  {
    "type": "node",
    "id": 313783389,
    "lat": 46.4767048,
    "lon": 6.4011607,
    "tags": {
      "amenity": "fuel",
      "name": "Coop",
      "payment:twint": "yes"
    }
  },
  {
    "type": "node",
    "id": 314445269,
    "lat": 46.5084806,
    "lon": 6.3168759,
    "tags": {
      "amenity": "fuel",
      "name": "Agip",
      "operator": "Agip"
    }
  },
  {
    "type": "node",
    "id": 315513529,
    "lat": 47.1008381,
    "lon": 8.2673762,
    "tags": {
      "amenity": "fuel",
      "name": "AVIA Tankstelle",
      "operator": "Avia",
      "wheelchair": "yes"
    }
  },
  {
    "type": "node",
    "id": 315538029,
    "lat": 47.4495331,
    "lon": 8.2128865,
    "tags": {
      "amenity": "fuel"
    }
  },
  {
    "type": "node",
    "id": 315538104,
    "lat": 47.4682442,
    "lon": 8.2113135,
    "tags": {
      "amenity": "fuel",
      "operator": "Knecht Reisen"
    }
  },
  {
    "type": "node",
    "id": 315599575,
    "lat": 47.3967679,
    "lon": 7.8541644,
    "tags": {
      "amenity": "fuel",
      "created_by": "Merkaartor 0.12"
    }
  },
  {
    "type": "node",
    "id": 316022671,
    "lat": 47.4613630,
    "lon": 9.5971795,
    "tags": {
      "amenity": "fuel"
    }
  },
  {
    "type": "node",
    "id": 316022885,
    "lat": 47.4439922,
    "lon": 9.5323785,
    "tags": {
      "amenity": "fuel"
    }
  },
  {
    "type": "node",
    "id": 316080571,
    "lat": 47.1935480,
    "lon": 7.6221728,
    "tags": {
      "amenity": "fuel",
      "created_by": "Merkaartor 0.13",
      "source": "Knowledge"
    }
  },
  {
    "type": "node",
    "id": 316878199,
    "lat": 47.5205568,
    "lon": 8.2428388,
    "tags": {
      "amenity": "fuel"
    }
  },
  {
    "type": "node",
    "id": 317022081,
    "lat": 47.5980137,
    "lon": 9.0311262,
    "tags": {
      "amenity": "fuel",
      "brand": "Agrola",
      "fuel:diesel": "yes",
      "fuel:octane_95": "yes",
      "operator": "Agrola",
      "shop": "no",
      "toilets:wheelchair": "no",
      "wheelchair": "yes"
    }
  },
  {
    "type": "node",
    "id": 317038642,
    "lat": 47.1433014,
    "lon": 7.3733308,
    "tags": {
      "addr:city": "Büren an der Aare",
      "amenity": "fuel",
      "brand": "Ruedi Rüssel",
      "fuel:biodiesel": "no",
      "fuel:biogas": "no",
      "fuel:cng": "no",
      "fuel:diesel": "yes",
      "fuel:octane_95": "yes",
      "fuel:octane_98": "yes",
      "name": "Juragarage-Peter",
      "operator": "Juragarage-Peter",
      "source": "survey"
    }
  },
  {
    "type": "node",
    "id": 317044955,
    "lat": 47.1478724,
    "lon": 8.4340400,
    "tags": {
      "amenity": "fuel",
      "name": "Coop"
    }
  },
  {
    "type": "node",
    "id": 317044957,
    "lat": 47.1477792,
    "lon": 8.4344707,
    "tags": {
      "amenity": "fuel",
      "brand": "Shell",
      "name": "Scherer"
    }
  },
  {
    "type": "node",
    "id": 317044958,
    "lat": 47.1455536,
    "lon": 8.4318085,
    "tags": {
      "amenity": "fuel",
      "name": "BP - Garage Wismer",
      "operator": "BP"
    }
  },
  {
    "type": "node",
    "id": 317044962,
    "lat": 47.1421512,
    "lon": 8.4283206,
    "tags": {
      "amenity": "fuel",
      "name": "Agrola Landi",
      "operator": "Agrola"
    }
  },
  {
    "type": "node",
    "id": 317045478,
    "lat": 47.4712239,
    "lon": 9.0585959,
    "tags": {
      "amenity": "fuel",
      "name": "AVIA"
    }
  },
  {
    "type": "node",
    "id": 317828998,
    "lat": 46.1738259,
    "lon": 6.1283334,
    "tags": {
      "amenity": "fuel",
      "name": "BP",
      "operator": "BP"
    }
  },
  {
    "type": "node",
    "id": 317829000,
    "lat": 46.1689766,
    "lon": 6.1408791,
    "tags": {
      "addr:city": "Vessy",
      "addr:housenumber": "73",
      "addr:street": "Route de Drize",
      "amenity": "fuel"
    }
  },
  {
    "type": "node",
    "id": 317829065,
    "lat": 46.1931561,
    "lon": 6.1526381,
    "tags": {
      "addr:city": "Genève",
      "addr:housenumber": "17",
      "addr:street": "Rue Michel-Servet",
      "amenity": "fuel"
    }
  },
  {
    "type": "node",
    "id": 317830458,
    "lat": 46.2253546,
    "lon": 6.1072403,
    "tags": {
      "amenity": "fuel",
      "operator": "Migrol"
    }
  },
  {
    "type": "node",
    "id": 318017751,
    "lat": 47.5085315,
    "lon": 8.2046398,
    "tags": {
      "amenity": "fuel"
    }
  },
  {
    "type": "node",
    "id": 318306689,
    "lat": 46.8773686,
    "lon": 7.5419439,
    "tags": {
      "amenity": "fuel",
      "brand": "BP",
      "fuel:diesel": "yes",
      "name": "Münsingen",
      "operator": "BP",
      "wheelchair": "limited"
    }
  },
  {
    "type": "node",
    "id": 318410355,
    "lat": 47.4196626,
    "lon": 8.5562187,
    "tags": {
      "addr:city": "Zürich",
      "addr:country": "CH",
      "addr:housenumber": "100",
      "addr:postcode": "8052",
      "addr:street": "Thurgauerstrasse",
      "amenity": "fuel",
      "brand": "Shell",
      "fuel:diesel": "yes",
      "fuel:octane_100": "yes",
      "fuel:octane_95": "yes",
      "name": "Migrol Service Thurgauerstrasse",
      "operator": "Migrol",
      "payment:american_express": "yes",
      "payment:maestro": "yes",
      "payment:mastercard": "yes",
      "payment:notes": "yes",
      "payment:visa": "yes",
      "shop": "convenience"
    }
  },
  {
    "type": "node",
    "id": 318647877,
    "lat": 47.0434730,
    "lon": 7.2734827,
    "tags": {
      "amenity": "fuel",
      "operator": "BP"
    }
  },
  {
    "type": "node",
    "id": 319114593,
    "lat": 46.3152191,
    "lon": 6.1919134,
    "tags": {
      "amenity": "fuel",
      "operator": "BP"
    }
  },
  {
    "type": "node",
    "id": 319212183,
    "lat": 46.1679840,
    "lon": 6.1854098,
    "tags": {
      "addr:city": "Veyrier",
      "addr:housenumber": "101",
      "addr:street": "Route du Pas-de-l'Echelle",
      "amenity": "fuel"
    }
  },
  {
    "type": "node",
    "id": 319463995,
    "lat": 47.4206437,
    "lon": 9.3669585,
    "tags": {
      "amenity": "fuel"
    }
  },
  {
    "type": "node",
    "id": 319504511,
    "lat": 46.4897328,
    "lon": 6.3989245,
    "tags": {
      "amenity": "fuel",
      "operator": "Tamoil"
    }
  },
  {
    "type": "node",
    "id": 320040835,
    "lat": 47.4932190,
    "lon": 8.8988074,
    "tags": {
      "amenity": "fuel",
      "name": "Coop",
      "opening_hours": "Mo-Sa 06:00-22:00; Su 06:00-20:00",
      "operator": "Coop",
      "shop": "convenience",
      "wheelchair": "yes"
    }
  },
  {
    "type": "node",
    "id": 320040876,
    "lat": 47.4935613,
    "lon": 8.8982352,
    "tags": {
      "amenity": "fuel",
      "name": "Ruedi Rüssel",
      "opening_hours": "24/7",
      "operator": "Ruedi Rüssel",
      "wheelchair": "limited"
    }
  },
  {
    "type": "node",
    "id": 320182673,
    "lat": 47.4937984,
    "lon": 8.5467820,
    "tags": {
      "addr:housenumber": "7",
      "addr:postcode": "8185",
      "addr:street": "Zürichstrasse",
      "amenity": "fuel",
      "operator": "Migrol"
    }
  },
  {
    "type": "node",
    "id": 320269933,
    "lat": 47.0752063,
    "lon": 8.3304813,
    "tags": {
      "addr:city": "Ebikon",
      "addr:housenumber": "33",
      "addr:postcode": "6030",
      "addr:street": "Luzernerstrasse",
      "amenity": "fuel",
      "brand": "BP",
      "name": "Auto Koch AG",
      "operator": "BP"
    }
  },
  {
    "type": "node",
    "id": 320269935,
    "lat": 47.0776812,
    "lon": 8.3349434,
    "tags": {
      "addr:city": "Ebikon",
      "addr:housenumber": "17",
      "addr:postcode": "6030",
      "addr:street": "Luzernerstrasse",
      "amenity": "fuel",
      "brand": "BP",
      "name": "AMAG Luzern",
      "operator": "BP"
    }
  },
  {
    "type": "node",
    "id": 320351729,
    "lat": 47.1342480,
    "lon": 8.0455809,
    "tags": {
      "amenity": "fuel",
      "fuel:diesel": "yes",
      "fuel:octane_95": "yes",
      "name": "Agrola",
      "operator": "LANDI Rottal"
    }
  },
  {
    "type": "node",
    "id": 321271634,
    "lat": 47.4989800,
    "lon": 8.7927573,
    "tags": {
      "amenity": "fuel",
      "name": "AVIA"
    }
  },
  {
    "type": "node",
    "id": 321362564,
    "lat": 47.3917824,
    "lon": 8.5424928,
    "tags": {
      "amenity": "fuel",
      "automated": "yes",
      "brand": "Tamoil",
      "capacity": "1",
      "fuel:diesel": "yes",
      "fuel:octane_95": "yes",
      "name": "Tamoil",
      "opening_hours": "24/7",
      "self_service": "yes",
      "shop": "no"
    }
  },
  {
    "type": "node",
    "id": 321679040,
    "lat": 47.1758326,
    "lon": 8.4517090,
    "tags": {
      "amenity": "fuel",
      "fuel:diesel": "yes",
      "fuel:octane_95": "yes",
      "fuel:octane_98": "yes",
      "operator": "Socar"
    }
  },
  {
    "type": "node",
    "id": 321853683,
    "lat": 47.5062912,
    "lon": 8.7141595,
    "tags": {
      "amenity": "fuel",
      "name": "Ruedi Rüssel"
    }
  },
  {
    "type": "node",
    "id": 321854756,
    "lat": 47.4980696,
    "lon": 8.7466250,
    "tags": {
      "amenity": "fuel",
      "created_by": "Potlatch 0.10f",
      "operator": "Avia"
    }
  },
  {
    "type": "node",
    "id": 321855166,
    "lat": 47.5111545,
    "lon": 8.7604652,
    "tags": {
      "amenity": "fuel",
      "name": "BP"
    }
  },
  {
    "type": "node",
    "id": 322009546,
    "lat": 46.1452015,
    "lon": 6.1365929,
    "tags": {
      "addr:city": "La Croix-de-Rozon",
      "addr:housenumber": "223",
      "addr:street": "Route d'Annecy",
      "amenity": "fuel",
      "name": "Tamoil"
    }
  },
  {
    "type": "node",
    "id": 322061464,
    "lat": 47.0825336,
    "lon": 8.3077885,
    "tags": {
      "amenity": "fuel",
      "operator": "Agip",
      "wheelchair": "yes"
    }
  },
  {
    "type": "node",
    "id": 322913188,
    "lat": 47.0426355,
    "lon": 8.5512244,
    "tags": {
      "amenity": "fuel",
      "name": "Ruedi-Rüssel"
    }
  },
  {
    "type": "node",
    "id": 323236561,
    "lat": 47.4948853,
    "lon": 8.3401247,
    "tags": {
      "amenity": "fuel",
      "name": "AVIA",
      "operator": "Avia"
    }
  },
  {
    "type": "node",
    "id": 324343384,
    "lat": 47.3015236,
    "lon": 8.4483501,
    "tags": {
      "amenity": "fuel",
      "name": "FREIE TANKSTELLE"
    }
  },
  {
    "type": "node",
    "id": 324648649,
    "lat": 47.1857748,
    "lon": 8.5209067,
    "tags": {
      "amenity": "fuel",
      "created_by": "Potlatch 0.10f",
      "operator": "Migrol"
    }
  },
  {
    "type": "node",
    "id": 325054969,
    "lat": 47.5103136,
    "lon": 7.6206433,
    "tags": {
      "amenity": "fuel"
    }
  },
  {
    "type": "node",
    "id": 325787263,
    "lat": 46.2037166,
    "lon": 7.1670910,
    "tags": {
      "amenity": "fuel",
      "name": "Combustia"
    }
  },
  {
    "type": "node",
    "id": 325851832,
    "lat": 46.1847994,
    "lon": 7.2113627,
    "tags": {
      "amenity": "fuel",
      "brand": "Tamoil",
      "name": "Poste d' essence"
    }
  },
  {
    "type": "node",
    "id": 327282170,
    "lat": 46.5668634,
    "lon": 6.5588210,
    "tags": {
      "addr:postcode": "1029",
      "addr:street": "Route de Cossonay",
      "amenity": "fuel",
      "is_in": "Villars-Sainte-Croix,Vaud,Schweiz,Europe",
      "name": "Migrol avec Magasin",
      "operator": "Migrol"
    }
  },
  {
    "type": "node",
    "id": 327446985,
    "lat": 47.4437276,
    "lon": 8.1985732,
    "tags": {
      "amenity": "fuel",
      "brand": "Voegtlin-Meyer"
    }
  },
  {
    "type": "node",
    "id": 328060238,
    "lat": 45.9851267,
    "lon": 8.9364220,
    "tags": {
      "amenity": "fuel",
      "name": "Shell"
    }
  },
  {
    "type": "node",
    "id": 330142805,
    "lat": 47.5249940,
    "lon": 8.5392925,
    "tags": {
      "amenity": "fuel",
      "name": "Soli-Tankstelle",
      "operator": "BP"
    }
  },
  {
    "type": "node",
    "id": 331317250,
    "lat": 47.3674025,
    "lon": 8.4942908,
    "tags": {
      "addr:city": "Zürich",
      "addr:country": "CH",
      "addr:housenumber": "517",
      "addr:postcode": "8055",
      "addr:street": "Birmensdorferstrasse",
      "amenity": "fuel",
      "brand": "Shell",
      "fuel:diesel": "yes",
      "fuel:octane_100": "yes",
      "fuel:octane_95": "yes",
      "name": "Migrol Service Triemli",
      "operator": "Migrol",
      "payment:american_express": "yes",
      "payment:maestro": "yes",
      "payment:mastercard": "yes",
      "payment:notes": "yes",
      "payment:visa": "yes",
      "shop": "convenience",
      "wheelchair": "yes"
    }
  },
  {
    "type": "node",
    "id": 331337817,
    "lat": 46.6640423,
    "lon": 9.5713655,
    "tags": {
      "amenity": "fuel",
      "fuel:diesel": "yes",
      "fuel:octane_95": "yes",
      "fuel:octane_98": "yes",
      "name": "Agrola",
      "shop": "yes",
      "wheelchair": "yes"
    }
  },
  {
    "type": "node",
    "id": 331589251,
    "lat": 46.4711471,
    "lon": 7.1279606,
    "tags": {
      "amenity": "fuel"
    }
  },
  {
    "type": "node",
    "id": 333739192,
    "lat": 46.0968394,
    "lon": 7.2230332,
    "tags": {
      "amenity": "fuel"
    }
  },
  {
    "type": "node",
    "id": 333771406,
    "lat": 47.3084101,
    "lon": 7.9261406,
    "tags": {
      "amenity": "fuel",
      "name": "Coop Pronto",
      "operator": "Coop"
    }
  },
  {
    "type": "node",
    "id": 334002283,
    "lat": 47.4209037,
    "lon": 9.3570844,
    "tags": {
      "amenity": "fuel"
    }
  },
  {
    "type": "node",
    "id": 334002482,
    "lat": 47.4150880,
    "lon": 9.3535820,
    "tags": {
      "addr:city": "St.Gallen",
      "addr:housenumber": "17",
      "addr:postcode": "9000",
      "addr:street": "Fürstenlandstrasse",
      "amenity": "fuel",
      "operator": "Coop"
    }
  },
  {
    "type": "node",
    "id": 334005113,
    "lat": 47.4163799,
    "lon": 9.3455182,
    "tags": {
      "amenity": "fuel",
      "created_by": "Potlatch 0.10f"
    }
  },
  {
    "type": "node",
    "id": 335477010,
    "lat": 47.2669797,
    "lon": 8.6508957,
    "tags": {
      "amenity": "fuel",
      "fuel:1_25": "no",
      "fuel:1_50": "no",
      "fuel:GTL_diesel": "no",
      "fuel:HGV_diesel": "no",
      "fuel:biodiesel": "no",
      "fuel:biogas": "no",
      "fuel:cng": "no",
      "fuel:diesel": "no",
      "fuel:e10": "no",
      "fuel:e85": "no",
      "fuel:electricity": "no",
      "fuel:lpg": "no",
      "fuel:octane_100": "no",
      "fuel:octane_91": "no",
      "fuel:octane_95": "yes",
      "fuel:octane_98": "yes",
      "name": "AVIA"
    }
  },
  {
    "type": "node",
    "id": 335958350,
    "lat": 47.3903750,
    "lon": 8.4913858,
    "tags": {
      "addr:city": "Zürich",
      "addr:country": "CH",
      "addr:housenumber": "544",
      "addr:postcode": "8048",
      "addr:street": "Hohlstrasse",
      "amenity": "fuel",
      "brand": "SOCAR",
      "fuel:diesel": "yes",
      "fuel:octane_95": "yes",
      "fuel:octane_98": "yes",
      "name": "SOCAR Hohlstrasse",
      "opening_hours": "24/7",
      "payment:american_express": "yes",
      "payment:maestro": "yes",
      "payment:mastercard": "yes",
      "payment:notes": "yes",
      "payment:visa": "yes",
      "phone": "+41 44 433 10 55",
      "shop": "convenience"
    }
  },
  {
    "type": "node",
    "id": 336019729,
    "lat": 47.5574042,
    "lon": 7.5468130,
    "tags": {
      "amenity": "fuel",
      "brand": "Coop Tankstelle",
      "fuel:diesel": "yes",
      "fuel:octane_95": "yes",
      "fuel:octane_98": "yes",
      "name": "Coop Tankstelle",
      "operator": "Coop",
      "shop": "convenience"
    }
  },